// all data from http://www.ekidata.jp/ except ["Alphabet", "Number", "station_name_k", "station_name_r"]
var ts_db = [{"line_cd":28001,"station_cd":2800101,"Alphabet":"G","Number":"19","station_g_cd":2100201,"station_name":"浅草","station_name_k":"あさくさ","station_name_r":"ASAKUSA","pref_cd":13,"post":" ","add":"東京都台東区","lon":139.797592,"lat":35.710733,"e_status":0,"e_sort":2800101,"company_cd":18,"line_name":"東京メトロ銀座線","line_name_k":"ギンザセン","line_name_h":"東京メトロ銀座線","line_color_c":"F7931D"},
{"line_cd":28001,"station_cd":2800102,"Alphabet":"G","Number":"18","station_g_cd":2800102,"station_name":"田原町","station_name_k":"たわらまち","station_name_r":"TAWARAMACHI","pref_cd":13,"post":"111-0035","add":"台東区西浅草１-１-１８","lon":139.790897,"lat":35.709897,"e_status":0,"e_sort":2800102,"company_cd":18,"line_name":"東京メトロ銀座線","line_name_k":"ギンザセン","line_name_h":"東京メトロ銀座線","line_color_c":"F7931D"},
{"line_cd":28001,"station_cd":2800103,"Alphabet":"G","Number":"17","station_g_cd":2800103,"station_name":"稲荷町","station_name_k":"いなりちょう","station_name_r":"INARICHOU","pref_cd":13,"post":"110-0015","add":"台東区東上野３-３３-１１","lon":139.782593,"lat":35.711273,"e_status":0,"e_sort":2800103,"company_cd":18,"line_name":"東京メトロ銀座線","line_name_k":"ギンザセン","line_name_h":"東京メトロ銀座線","line_color_c":"F7931D"},
{"line_cd":28001,"station_cd":2800104,"Alphabet":"G","Number":"16","station_g_cd":1130220,"station_name":"上野","station_name_k":"うえの","station_name_r":"UENO","pref_cd":13,"post":" ","add":"東京都台東区東上野三丁目19-6","lon":139.777122,"lat":35.711482,"e_status":0,"e_sort":2800104,"company_cd":18,"line_name":"東京メトロ銀座線","line_name_k":"ギンザセン","line_name_h":"東京メトロ銀座線","line_color_c":"F7931D"},
{"line_cd":28001,"station_cd":2800105,"Alphabet":"G","Number":"15","station_g_cd":1130221,"station_name":"上野広小路","station_name_k":"うえのひろこうじ","station_name_r":"UENOHIROKOUJI","pref_cd":13,"post":"110-0005","add":"台東区上野３-２９-３","lon":139.772877,"lat":35.70768,"e_status":0,"e_sort":2800105,"company_cd":18,"line_name":"東京メトロ銀座線","line_name_k":"ギンザセン","line_name_h":"東京メトロ銀座線","line_color_c":"F7931D"},
{"line_cd":28001,"station_cd":2800106,"Alphabet":"G","Number":"14","station_g_cd":2800106,"station_name":"末広町","station_name_k":"すえひろちょう","station_name_r":"SUEHIROCHOU","pref_cd":13,"post":"101-0021","add":"千代田区外神田４-７-３","lon":139.771713,"lat":35.702972,"e_status":0,"e_sort":2800106,"company_cd":18,"line_name":"東京メトロ銀座線","line_name_k":"ギンザセン","line_name_h":"東京メトロ銀座線","line_color_c":"F7931D"},
{"line_cd":28001,"station_cd":2800107,"Alphabet":"G","Number":"13","station_g_cd":1130223,"station_name":"神田","station_name_k":"かんだ","station_name_r":"KANDA","pref_cd":13,"post":" ","add":"東京都千代田区神田須田町一丁目16","lon":139.770899,"lat":35.693587,"e_status":0,"e_sort":2800107,"company_cd":18,"line_name":"東京メトロ銀座線","line_name_k":"ギンザセン","line_name_h":"東京メトロ銀座線","line_color_c":"F7931D"},
{"line_cd":28001,"station_cd":2800108,"Alphabet":"G","Number":"12","station_g_cd":1131402,"station_name":"三越前","station_name_k":"みつこしまえ","station_name_r":"MITSUKOSHIMAE","pref_cd":13,"post":"103-0022","add":"中央区日本橋室町１-８-１","lon":139.773594,"lat":35.687101,"e_status":0,"e_sort":2800108,"company_cd":18,"line_name":"東京メトロ銀座線","line_name_k":"ギンザセン","line_name_h":"東京メトロ銀座線","line_color_c":"F7931D"},
{"line_cd":28001,"station_cd":2800109,"Alphabet":"G","Number":"11","station_g_cd":2800109,"station_name":"日本橋","station_name_k":"にほんばし","station_name_r":"NIHONBASHI","pref_cd":13,"post":"103-0027","add":"中央区日本橋１丁目","lon":139.773516,"lat":35.682078,"e_status":0,"e_sort":2800109,"company_cd":18,"line_name":"東京メトロ銀座線","line_name_k":"ギンザセン","line_name_h":"東京メトロ銀座線","line_color_c":"F7931D"},
{"line_cd":28001,"station_cd":2800110,"Alphabet":"G","Number":"10","station_g_cd":2800110,"station_name":"京橋","station_name_k":"きょうばし","station_name_r":"KYOUBASHI","pref_cd":13,"post":"104-0031","add":"中央区京橋２-２-１０","lon":139.770126,"lat":35.676856,"e_status":0,"e_sort":2800110,"company_cd":18,"line_name":"東京メトロ銀座線","line_name_k":"ギンザセン","line_name_h":"東京メトロ銀座線","line_color_c":"F7931D"},
{"line_cd":28001,"station_cd":2800111,"Alphabet":"G","Number":"09","station_g_cd":2800111,"station_name":"銀座","station_name_k":"ぎんざ","station_name_r":"GINZA","pref_cd":13,"post":"104-0061","add":"中央区銀座４-１-２","lon":139.763965,"lat":35.671989,"e_status":0,"e_sort":2800111,"company_cd":18,"line_name":"東京メトロ銀座線","line_name_k":"ギンザセン","line_name_h":"東京メトロ銀座線","line_color_c":"F7931D"},
{"line_cd":28001,"station_cd":2800112,"Alphabet":"G","Number":"08","station_g_cd":1130102,"station_name":"新橋","station_name_k":"しんばし","station_name_r":"SHINBASHI","pref_cd":13,"post":" ","add":"東京都港区新橋二丁目17-5","lon":139.758432,"lat":35.667434,"e_status":0,"e_sort":2800112,"company_cd":18,"line_name":"東京メトロ銀座線","line_name_k":"ギンザセン","line_name_h":"東京メトロ銀座線","line_color_c":"F7931D"},
{"line_cd":28001,"station_cd":2800113,"Alphabet":"G","Number":"07","station_g_cd":2800113,"station_name":"虎ノ門","station_name_k":"とらのもん","station_name_r":"TORANOMON","pref_cd":13,"post":"105-0001","add":"港区虎ノ門１-１-２１","lon":139.749832,"lat":35.670236,"e_status":0,"e_sort":2800113,"company_cd":18,"line_name":"東京メトロ銀座線","line_name_k":"ギンザセン","line_name_h":"東京メトロ銀座線","line_color_c":"F7931D"},
{"line_cd":28001,"station_cd":2800114,"Alphabet":"G","Number":"06","station_g_cd":2800114,"station_name":"溜池山王","station_name_k":"ためいけさんのう","station_name_r":"TAMEIKESANNO","pref_cd":13,"post":"100-0014","add":"千代田区永田町２-１１-１","lon":139.741419,"lat":35.673621,"e_status":0,"e_sort":2800114,"company_cd":18,"line_name":"東京メトロ銀座線","line_name_k":"ギンザセン","line_name_h":"東京メトロ銀座線","line_color_c":"F7931D"},
{"line_cd":28001,"station_cd":2800115,"Alphabet":"G","Number":"05","station_g_cd":2800115,"station_name":"赤坂見附","station_name_k":"あかさかみつけ","station_name_r":"AKASAKAMITSUKE","pref_cd":13,"post":"107-0052","add":"港区赤坂３-１-６","lon":139.737047,"lat":35.677021,"e_status":0,"e_sort":2800115,"company_cd":18,"line_name":"東京メトロ銀座線","line_name_k":"ギンザセン","line_name_h":"東京メトロ銀座線","line_color_c":"F7931D"},
{"line_cd":28001,"station_cd":2800116,"Alphabet":"G","Number":"04","station_g_cd":2800116,"station_name":"青山一丁目","station_name_k":"あおやまいっちょうめ","station_name_r":"AOYAMAICCHOME","pref_cd":13,"post":"107-0062","add":"港区南青山１-１-１９","lon":139.724159,"lat":35.672765,"e_status":0,"e_sort":2800116,"company_cd":18,"line_name":"東京メトロ銀座線","line_name_k":"ギンザセン","line_name_h":"東京メトロ銀座線","line_color_c":"F7931D"},
{"line_cd":28001,"station_cd":2800117,"Alphabet":"G","Number":"03","station_g_cd":2800117,"station_name":"外苑前","station_name_k":"がいえんまえ","station_name_r":"GAIENMAE","pref_cd":13,"post":"107-0061","add":"港区北青山２-７-１６","lon":139.717857,"lat":35.670527,"e_status":0,"e_sort":2800117,"company_cd":18,"line_name":"東京メトロ銀座線","line_name_k":"ギンザセン","line_name_h":"東京メトロ銀座線","line_color_c":"F7931D"},
{"line_cd":28001,"station_cd":2800118,"Alphabet":"G","Number":"02","station_g_cd":2800118,"station_name":"表参道","station_name_k":"おもてさんどう","station_name_r":"OMOTESANDO","pref_cd":13,"post":"107-0061","add":"港区北青山３丁目","lon":139.712314,"lat":35.665247,"e_status":0,"e_sort":2800118,"company_cd":18,"line_name":"東京メトロ銀座線","line_name_k":"ギンザセン","line_name_h":"東京メトロ銀座線","line_color_c":"F7931D"},
{"line_cd":28001,"station_cd":2800119,"Alphabet":"G","Number":"01","station_g_cd":1130205,"station_name":"渋谷","station_name_k":"しぶや","station_name_r":"SHIBUYA","pref_cd":13,"post":" ","add":"東京都渋谷区道玄坂一丁目1-1","lon":139.701,"lat":35.659066,"e_status":0,"e_sort":2800119,"company_cd":18,"line_name":"東京メトロ銀座線","line_name_k":"ギンザセン","line_name_h":"東京メトロ銀座線","line_color_c":"F7931D"},
{"line_cd":28002,"station_cd":2800201,"Alphabet":"M","Number":"25","station_g_cd":1130212,"station_name":"池袋","station_name_k":"いけぶくろ","station_name_r":"IKEBUKURO","pref_cd":13,"post":" ","add":"東京都豊島区","lon":139.711086,"lat":35.730256,"e_status":0,"e_sort":2800201,"company_cd":18,"line_name":"東京メトロ丸ノ内線","line_name_k":"マルノウチセン","line_name_h":"東京メトロ丸ノ内線","line_color_c":"E60012"},
{"line_cd":28002,"station_cd":2800202,"Alphabet":"M","Number":"24","station_g_cd":2800202,"station_name":"新大塚","station_name_k":"しんおおつか","station_name_r":"SHINOTSUKA","pref_cd":13,"post":"112-0012","add":"文京区大塚４-５１-５","lon":139.729971,"lat":35.72569,"e_status":0,"e_sort":2800202,"company_cd":18,"line_name":"東京メトロ丸ノ内線","line_name_k":"マルノウチセン","line_name_h":"東京メトロ丸ノ内線","line_color_c":"E60012"},
{"line_cd":28002,"station_cd":2800203,"Alphabet":"M","Number":"23","station_g_cd":2800203,"station_name":"茗荷谷","station_name_k":"みょうがだに","station_name_r":"MYOGADANI","pref_cd":13,"post":"112-0006","add":"文京区小日向４-６-１５","lon":139.737184,"lat":35.716989,"e_status":0,"e_sort":2800203,"company_cd":18,"line_name":"東京メトロ丸ノ内線","line_name_k":"マルノウチセン","line_name_h":"東京メトロ丸ノ内線","line_color_c":"E60012"},
{"line_cd":28002,"station_cd":2800204,"Alphabet":"M","Number":"22","station_g_cd":2800204,"station_name":"後楽園","station_name_k":"こうらくえん","station_name_r":"KOURAKUEN","pref_cd":13,"post":"112-0003","add":"文京区春日１-２-３","lon":139.751864,"lat":35.707898,"e_status":0,"e_sort":2800204,"company_cd":18,"line_name":"東京メトロ丸ノ内線","line_name_k":"マルノウチセン","line_name_h":"東京メトロ丸ノ内線","line_color_c":"E60012"},
{"line_cd":28002,"station_cd":2800205,"Alphabet":"M","Number":"21","station_g_cd":2800205,"station_name":"本郷三丁目","station_name_k":"ほんごうさんちょうめ","station_name_r":"HONGOUSANCHOME","pref_cd":13,"post":"113-0033","add":"文京区本郷２-３９-１","lon":139.759914,"lat":35.706671,"e_status":0,"e_sort":2800205,"company_cd":18,"line_name":"東京メトロ丸ノ内線","line_name_k":"マルノウチセン","line_name_h":"東京メトロ丸ノ内線","line_color_c":"E60012"},
{"line_cd":28002,"station_cd":2800206,"Alphabet":"M","Number":"20","station_g_cd":1131203,"station_name":"御茶ノ水","station_name_k":"おちゃのみず","station_name_r":"OCHANOMIZU","pref_cd":13,"post":"101-0062","add":"千代田区神田駿河台２丁目","lon":139.763952,"lat":35.700614,"e_status":0,"e_sort":2800206,"company_cd":18,"line_name":"東京メトロ丸ノ内線","line_name_k":"マルノウチセン","line_name_h":"東京メトロ丸ノ内線","line_color_c":"E60012"},
{"line_cd":28002,"station_cd":2800207,"Alphabet":"M","Number":"19","station_g_cd":2800207,"station_name":"淡路町","station_name_k":"あわじちょう","station_name_r":"AWAJICHO","pref_cd":13,"post":"101-0063","add":"千代田区神田淡路町１-２","lon":139.767575,"lat":35.695434,"e_status":0,"e_sort":2800207,"company_cd":18,"line_name":"東京メトロ丸ノ内線","line_name_k":"マルノウチセン","line_name_h":"東京メトロ丸ノ内線","line_color_c":"E60012"},
{"line_cd":28002,"station_cd":2800208,"Alphabet":"M","Number":"18","station_g_cd":2800208,"station_name":"大手町","station_name_k":"おおてまち","station_name_r":"OTEMACHI","pref_cd":13,"post":"100-0004","add":"千代田区大手町１丁目","lon":139.7662,"lat":35.686564,"e_status":0,"e_sort":2800208,"company_cd":18,"line_name":"東京メトロ丸ノ内線","line_name_k":"マルノウチセン","line_name_h":"東京メトロ丸ノ内線","line_color_c":"E60012"},
{"line_cd":28002,"station_cd":2800209,"Alphabet":"M","Number":"17","station_g_cd":1130101,"station_name":"東京","station_name_k":"とうきょう","station_name_r":"TOKYO","pref_cd":13,"post":" ","add":"東京都千代田区丸の内一丁目","lon":139.764708,"lat":35.681753,"e_status":0,"e_sort":2800209,"company_cd":18,"line_name":"東京メトロ丸ノ内線","line_name_k":"マルノウチセン","line_name_h":"東京メトロ丸ノ内線","line_color_c":"E60012"},
{"line_cd":28002,"station_cd":2800210,"Alphabet":"M","Number":"16","station_g_cd":2800111,"station_name":"銀座","station_name_k":"ぎんざ","station_name_r":"GINNZA","pref_cd":13,"post":"104-0061","add":"中央区銀座４-１-２","lon":139.763965,"lat":35.671989,"e_status":0,"e_sort":2800210,"company_cd":18,"line_name":"東京メトロ丸ノ内線","line_name_k":"マルノウチセン","line_name_h":"東京メトロ丸ノ内線","line_color_c":"E60012"},
{"line_cd":28002,"station_cd":2800211,"Alphabet":"M","Number":"15","station_g_cd":2800211,"station_name":"霞ケ関","station_name_k":"かすみがせき","station_name_r":"KASUMIGASEKI","pref_cd":13,"post":"100-0013","add":"千代田区霞が関２丁目","lon":139.750899,"lat":35.673838,"e_status":0,"e_sort":2800211,"company_cd":18,"line_name":"東京メトロ丸ノ内線","line_name_k":"マルノウチセン","line_name_h":"東京メトロ丸ノ内線","line_color_c":"E60012"},
{"line_cd":28002,"station_cd":2800212,"Alphabet":"M","Number":"14","station_g_cd":2800212,"station_name":"国会議事堂前","station_name_k":"こっかいぎじどうまえ","station_name_r":"KOKKAIGIJIDOMAE","pref_cd":13,"post":"100-0014","add":"千代田区永田町１丁目","lon":139.745219,"lat":35.67393,"e_status":0,"e_sort":2800212,"company_cd":18,"line_name":"東京メトロ丸ノ内線","line_name_k":"マルノウチセン","line_name_h":"東京メトロ丸ノ内線","line_color_c":"E60012"},
{"line_cd":28002,"station_cd":2800213,"Alphabet":"M","Number":"13","station_g_cd":2800115,"station_name":"赤坂見附","station_name_k":"あかさかみつけ","station_name_r":"AKASAKAMITSUKE","pref_cd":13,"post":"107-0052","add":"港区赤坂３-１-６","lon":139.737047,"lat":35.677021,"e_status":0,"e_sort":2800213,"company_cd":18,"line_name":"東京メトロ丸ノ内線","line_name_k":"マルノウチセン","line_name_h":"東京メトロ丸ノ内線","line_color_c":"E60012"},
{"line_cd":28002,"station_cd":2800214,"Alphabet":"M","Number":"12","station_g_cd":1131102,"station_name":"四ツ谷","station_name_k":"よつや","station_name_r":"YOTSUYA","pref_cd":13,"post":"160-0004","add":"新宿区四谷１丁目","lon":139.729947,"lat":35.684586,"e_status":0,"e_sort":2800214,"company_cd":18,"line_name":"東京メトロ丸ノ内線","line_name_k":"マルノウチセン","line_name_h":"東京メトロ丸ノ内線","line_color_c":"E60012"},
{"line_cd":28002,"station_cd":2800215,"Alphabet":"M","Number":"11","station_g_cd":2800215,"station_name":"四谷三丁目","station_name_k":"よつやさんちょうめ","station_name_r":"YOTSUYASANCHOME","pref_cd":13,"post":"160-0004","add":"新宿区四谷３-８","lon":139.720103,"lat":35.687958,"e_status":0,"e_sort":2800215,"company_cd":18,"line_name":"東京メトロ丸ノ内線","line_name_k":"マルノウチセン","line_name_h":"東京メトロ丸ノ内線","line_color_c":"E60012"},
{"line_cd":28002,"station_cd":2800216,"Alphabet":"M","Number":"10","station_g_cd":2800216,"station_name":"新宿御苑前","station_name_k":"しんじゅくぎょえんまえ","station_name_r":"SHINJUKUGYOENMAE","pref_cd":13,"post":"160-0022","add":"新宿区新宿１-８-１","lon":139.71069,"lat":35.688588,"e_status":0,"e_sort":2800216,"company_cd":18,"line_name":"東京メトロ丸ノ内線","line_name_k":"マルノウチセン","line_name_h":"東京メトロ丸ノ内線","line_color_c":"E60012"},
{"line_cd":28002,"station_cd":2800217,"Alphabet":"M","Number":"09","station_g_cd":2800217,"station_name":"新宿三丁目","station_name_k":"しんじゅくさんちょうめ","station_name_r":"SHINJUKUSANCHOME","pref_cd":13,"post":"160-0022","add":"新宿区新宿３-１４-１","lon":139.704895,"lat":35.690847,"e_status":0,"e_sort":2800217,"company_cd":18,"line_name":"東京メトロ丸ノ内線","line_name_k":"マルノウチセン","line_name_h":"東京メトロ丸ノ内線","line_color_c":"E60012"},
{"line_cd":28002,"station_cd":2800218,"Alphabet":"M","Number":"08","station_g_cd":1130208,"station_name":"新宿","station_name_k":"しんじゅく","station_name_r":"SHINJUKU","pref_cd":13,"post":"-","add":"東京都新宿区西新宿一丁目 西口地下街1号","lon":139.700711,"lat":35.69235,"e_status":0,"e_sort":2800218,"company_cd":18,"line_name":"東京メトロ丸ノ内線","line_name_k":"マルノウチセン","line_name_h":"東京メトロ丸ノ内線","line_color_c":"E60012"},
{"line_cd":28002,"station_cd":2800219,"Alphabet":"M","Number":"07","station_g_cd":2800219,"station_name":"西新宿","station_name_k":"にししんじゅく","station_name_r":"NISHISHINJUKU","pref_cd":13,"post":"160-0023","add":"新宿区西新宿６-７-５１","lon":139.692778,"lat":35.694298,"e_status":0,"e_sort":2800219,"company_cd":18,"line_name":"東京メトロ丸ノ内線","line_name_k":"マルノウチセン","line_name_h":"東京メトロ丸ノ内線","line_color_c":"E60012"},
{"line_cd":28002,"station_cd":2800220,"Alphabet":"M","Number":"06","station_g_cd":2800220,"station_name":"中野坂上","station_name_k":"なかのさかうえ","station_name_r":"NAKANOSAKAUE","pref_cd":13,"post":"164-0011","add":"中野区中央２-１-２","lon":139.68291,"lat":35.69792,"e_status":0,"e_sort":2800220,"company_cd":18,"line_name":"東京メトロ丸ノ内線","line_name_k":"マルノウチセン","line_name_h":"東京メトロ丸ノ内線","line_color_c":"E60012"},
{"line_cd":28002,"station_cd":2800221,"Alphabet":"M","Number":"05","station_g_cd":2800221,"station_name":"新中野","station_name_k":"しんなかの","station_name_r":"SHINNAKANO","pref_cd":13,"post":"164-0011","add":"中野区中央４-２-１５","lon":139.66903,"lat":35.697491,"e_status":0,"e_sort":2800221,"company_cd":18,"line_name":"東京メトロ丸ノ内線","line_name_k":"マルノウチセン","line_name_h":"東京メトロ丸ノ内線","line_color_c":"E60012"},
{"line_cd":28002,"station_cd":2800222,"Alphabet":"M","Number":"04","station_g_cd":2800222,"station_name":"東高円寺","station_name_k":"ひがしこうえんじ","station_name_r":"HIGASHIKOENJI","pref_cd":13,"post":"166-0012","add":"杉並区和田３-５５-４２","lon":139.657822,"lat":35.697802,"e_status":0,"e_sort":2800222,"company_cd":18,"line_name":"東京メトロ丸ノ内線","line_name_k":"マルノウチセン","line_name_h":"東京メトロ丸ノ内線","line_color_c":"E60012"},
{"line_cd":28002,"station_cd":2800223,"Alphabet":"M","Number":"03","station_g_cd":2800223,"station_name":"新高円寺","station_name_k":"しんこうえんじ","station_name_r":"SHINKOENNJI","pref_cd":13,"post":"166-0003","add":"杉並区高円寺南２-２０-１","lon":139.648068,"lat":35.697985,"e_status":0,"e_sort":2800223,"company_cd":18,"line_name":"東京メトロ丸ノ内線","line_name_k":"マルノウチセン","line_name_h":"東京メトロ丸ノ内線","line_color_c":"E60012"},
{"line_cd":28002,"station_cd":2800224,"Alphabet":"M","Number":"02","station_g_cd":2800224,"station_name":"南阿佐ケ谷","station_name_k":"みなみあさがや","station_name_r":"MINAMIASAGAYA","pref_cd":13,"post":"166-0004","add":"杉並区阿佐谷南１-１５-７","lon":139.63576,"lat":35.699624,"e_status":0,"e_sort":2800224,"company_cd":18,"line_name":"東京メトロ丸ノ内線","line_name_k":"マルノウチセン","line_name_h":"東京メトロ丸ノ内線","line_color_c":"E60012"},
{"line_cd":28002,"station_cd":2800225,"Alphabet":"M","Number":"01","station_g_cd":1131217,"station_name":"荻窪","station_name_k":"おぎくぼ","station_name_r":"OGIKUBO","pref_cd":13,"post":"167-0043","add":"杉並区上荻１丁目","lon":139.620116,"lat":35.704304,"e_status":0,"e_sort":2800225,"company_cd":18,"line_name":"東京メトロ丸ノ内線","line_name_k":"マルノウチセン","line_name_h":"東京メトロ丸ノ内線","line_color_c":"E60012"},
{"line_cd":28002,"station_cd":2800226,"Alphabet":"m","Number":"05","station_g_cd":2800226,"station_name":"中野新橋","station_name_k":"なかのしんばし","station_name_r":"NAKANOSHINBASHI","pref_cd":13,"post":"164-0013","add":"中野区弥生町２-２６-８","lon":139.673997,"lat":35.692123,"e_status":0,"e_sort":2800226,"company_cd":18,"line_name":"東京メトロ丸ノ内線","line_name_k":"マルノウチセン","line_name_h":"東京メトロ丸ノ内線","line_color_c":"E60012"},
{"line_cd":28002,"station_cd":2800227,"Alphabet":"m","Number":"04","station_g_cd":2800227,"station_name":"中野富士見町","station_name_k":"なかのふじみちょう","station_name_r":"NAKANOFUJIMICHO","pref_cd":13,"post":"164-0013","add":"中野区弥生町５-２４-４","lon":139.666933,"lat":35.690514,"e_status":0,"e_sort":2800227,"company_cd":18,"line_name":"東京メトロ丸ノ内線","line_name_k":"マルノウチセン","line_name_h":"東京メトロ丸ノ内線","line_color_c":"E60012"},
{"line_cd":28002,"station_cd":2800228,"Alphabet":"m","Number":"03","station_g_cd":2800228,"station_name":"方南町","station_name_k":"ほうなんちょう","station_name_r":"HONANCHO","pref_cd":13,"post":"166-0013","add":"杉並区堀ノ内１-１-１","lon":139.656498,"lat":35.683496,"e_status":0,"e_sort":2800228,"company_cd":18,"line_name":"東京メトロ丸ノ内線","line_name_k":"マルノウチセン","line_name_h":"東京メトロ丸ノ内線","line_color_c":"E60012"},
{"line_cd":28003,"station_cd":2800301,"Alphabet":"H","Number":"21","station_g_cd":1132005,"station_name":"北千住","station_name_k":"きたせんじゅ","station_name_r":"KITASENNJU","pref_cd":13,"post":"120-0026","add":"足立区千住旭町","lon":139.804276,"lat":35.748916,"e_status":0,"e_sort":2800301,"company_cd":18,"line_name":"東京メトロ日比谷線","line_name_k":"ヒビヤセン","line_name_h":"東京メトロ日比谷線","line_color_c":"89A1AD"},
{"line_cd":28003,"station_cd":2800302,"Alphabet":"H","Number":"20","station_g_cd":1132004,"station_name":"南千住","station_name_k":"みなみせんじゅ","station_name_r":"MINAMISENNJU","pref_cd":13,"post":"116-0003","add":"荒川区南千住４丁目","lon":139.799273,"lat":35.733398,"e_status":0,"e_sort":2800302,"company_cd":18,"line_name":"東京メトロ日比谷線","line_name_k":"ヒビヤセン","line_name_h":"東京メトロ日比谷線","line_color_c":"89A1AD"},
{"line_cd":28003,"station_cd":2800303,"Alphabet":"H","Number":"19","station_g_cd":2800303,"station_name":"三ノ輪","station_name_k":"みのわ","station_name_r":"MINOWA","pref_cd":13,"post":"110-0011","add":"台東区三ノ輪２-１４-７","lon":139.791485,"lat":35.729623,"e_status":0,"e_sort":2800303,"company_cd":18,"line_name":"東京メトロ日比谷線","line_name_k":"ヒビヤセン","line_name_h":"東京メトロ日比谷線","line_color_c":"89A1AD"},
{"line_cd":28003,"station_cd":2800304,"Alphabet":"H","Number":"18","station_g_cd":2800304,"station_name":"入谷","station_name_k":"いりや","station_name_r":"IRIYA","pref_cd":13,"post":"110-0013","add":"台東区入谷１-６-４","lon":139.783924,"lat":35.719862,"e_status":0,"e_sort":2800304,"company_cd":18,"line_name":"東京メトロ日比谷線","line_name_k":"ヒビヤセン","line_name_h":"東京メトロ日比谷線","line_color_c":"89A1AD"},
{"line_cd":28003,"station_cd":2800305,"Alphabet":"H","Number":"17","station_g_cd":1130220,"station_name":"上野","station_name_k":"うえの","station_name_r":"UENO","pref_cd":13,"post":" ","add":"東京都台東区東上野三丁目19-6","lon":139.777122,"lat":35.711482,"e_status":0,"e_sort":2800305,"company_cd":18,"line_name":"東京メトロ日比谷線","line_name_k":"ヒビヤセン","line_name_h":"東京メトロ日比谷線","line_color_c":"89A1AD"},
{"line_cd":28003,"station_cd":2800306,"Alphabet":"H","Number":"16","station_g_cd":1130221,"station_name":"仲御徒町","station_name_k":"なかおかちまち","station_name_r":"NAKAOKACHIMACHI","pref_cd":13,"post":"110-0005","add":"台東区上野５-２４-１２","lon":139.776138,"lat":35.706649,"e_status":0,"e_sort":2800306,"company_cd":18,"line_name":"東京メトロ日比谷線","line_name_k":"ヒビヤセン","line_name_h":"東京メトロ日比谷線","line_color_c":"89A1AD"},
{"line_cd":28003,"station_cd":2800307,"Alphabet":"H","Number":"15","station_g_cd":1130222,"station_name":"秋葉原","station_name_k":"あきはばら","station_name_r":"AKIHABARA","pref_cd":13,"post":" ","add":"東京都千代田区神田佐久間町一丁目21","lon":139.775459,"lat":35.698162,"e_status":0,"e_sort":2800307,"company_cd":18,"line_name":"東京メトロ日比谷線","line_name_k":"ヒビヤセン","line_name_h":"東京メトロ日比谷線","line_color_c":"89A1AD"},
{"line_cd":28003,"station_cd":2800308,"Alphabet":"H","Number":"14","station_g_cd":2800308,"station_name":"小伝馬町","station_name_k":"こでんまちょう","station_name_r":"KODENNMACHOU","pref_cd":13,"post":"103-0001","add":"中央区日本橋小伝馬町１１-１","lon":139.778433,"lat":35.690737,"e_status":0,"e_sort":2800308,"company_cd":18,"line_name":"東京メトロ日比谷線","line_name_k":"ヒビヤセン","line_name_h":"東京メトロ日比谷線","line_color_c":"89A1AD"},
{"line_cd":28003,"station_cd":2800309,"Alphabet":"H","Number":"13","station_g_cd":2800309,"station_name":"人形町","station_name_k":"にんぎょうちょう","station_name_r":"NINNGYOUCHOU","pref_cd":13,"post":"103-0013","add":"中央区日本橋人形町２-６-５","lon":139.782285,"lat":35.686307,"e_status":0,"e_sort":2800309,"company_cd":18,"line_name":"東京メトロ日比谷線","line_name_k":"ヒビヤセン","line_name_h":"東京メトロ日比谷線","line_color_c":"89A1AD"},
{"line_cd":28003,"station_cd":2800310,"Alphabet":"H","Number":"12","station_g_cd":2800310,"station_name":"茅場町","station_name_k":"かやばちょう","station_name_r":"KAYABACHOU","pref_cd":13,"post":"103-0025","add":"中央区日本橋茅場町１-４-６","lon":139.780005,"lat":35.679752,"e_status":0,"e_sort":2800310,"company_cd":18,"line_name":"東京メトロ日比谷線","line_name_k":"ヒビヤセン","line_name_h":"東京メトロ日比谷線","line_color_c":"89A1AD"},
{"line_cd":28003,"station_cd":2800311,"Alphabet":"H","Number":"11","station_g_cd":1132602,"station_name":"八丁堀","station_name_k":"はっちょうぼり","station_name_r":"HACCHOUBORI","pref_cd":13,"post":"104-0032","add":"中央区八丁堀３丁目","lon":139.776982,"lat":35.674851,"e_status":0,"e_sort":2800311,"company_cd":18,"line_name":"東京メトロ日比谷線","line_name_k":"ヒビヤセン","line_name_h":"東京メトロ日比谷線","line_color_c":"89A1AD"},
{"line_cd":28003,"station_cd":2800312,"Alphabet":"H","Number":"10","station_g_cd":2800312,"station_name":"築地","station_name_k":"つきじ","station_name_r":"TSUKIJI","pref_cd":13,"post":"104-0045","add":"中央区築地３-１５-１","lon":139.772603,"lat":35.668115,"e_status":0,"e_sort":2800312,"company_cd":18,"line_name":"東京メトロ日比谷線","line_name_k":"ヒビヤセン","line_name_h":"東京メトロ日比谷線","line_color_c":"89A1AD"},
{"line_cd":28003,"station_cd":2800313,"Alphabet":"H","Number":"09","station_g_cd":2800313,"station_name":"東銀座","station_name_k":"ひがしぎんざ","station_name_r":"HIGASHIGINNZA","pref_cd":13,"post":"104-0061","add":"中央区銀座４-１２-１５","lon":139.767253,"lat":35.669464,"e_status":0,"e_sort":2800313,"company_cd":18,"line_name":"東京メトロ日比谷線","line_name_k":"ヒビヤセン","line_name_h":"東京メトロ日比谷線","line_color_c":"89A1AD"},
{"line_cd":28003,"station_cd":2800314,"Alphabet":"H","Number":"08","station_g_cd":2800111,"station_name":"銀座","station_name_k":"ぎんざ","station_name_r":"GINNZA","pref_cd":13,"post":"104-0061","add":"中央区銀座４-１-２","lon":139.763965,"lat":35.671989,"e_status":0,"e_sort":2800314,"company_cd":18,"line_name":"東京メトロ日比谷線","line_name_k":"ヒビヤセン","line_name_h":"東京メトロ日比谷線","line_color_c":"89A1AD"},
{"line_cd":28003,"station_cd":2800315,"Alphabet":"H","Number":"07","station_g_cd":2800315,"station_name":"日比谷","station_name_k":"ひびや","station_name_r":"HIBIYA","pref_cd":13,"post":"100-0006","add":"千代田区有楽町１丁目","lon":139.76017,"lat":35.67459,"e_status":0,"e_sort":2800315,"company_cd":18,"line_name":"東京メトロ日比谷線","line_name_k":"ヒビヤセン","line_name_h":"東京メトロ日比谷線","line_color_c":"89A1AD"},
{"line_cd":28003,"station_cd":2800316,"Alphabet":"H","Number":"06","station_g_cd":2800211,"station_name":"霞ケ関","station_name_k":"かすみがせき","station_name_r":"KASUMIGASEKI","pref_cd":13,"post":"100-0013","add":"千代田区霞が関２丁目","lon":139.750899,"lat":35.673838,"e_status":0,"e_sort":2800316,"company_cd":18,"line_name":"東京メトロ日比谷線","line_name_k":"ヒビヤセン","line_name_h":"東京メトロ日比谷線","line_color_c":"89A1AD"},
{"line_cd":28003,"station_cd":2800317,"Alphabet":"H","Number":"05","station_g_cd":2800317,"station_name":"神谷町","station_name_k":"かみやちょう","station_name_r":"KAMIYACHOU","pref_cd":13,"post":"105-0001","add":"港区虎ノ門５-１２-１１","lon":139.745069,"lat":35.662978,"e_status":0,"e_sort":2800317,"company_cd":18,"line_name":"東京メトロ日比谷線","line_name_k":"ヒビヤセン","line_name_h":"東京メトロ日比谷線","line_color_c":"89A1AD"},
{"line_cd":28003,"station_cd":2800318,"Alphabet":"H","Number":"04","station_g_cd":2800318,"station_name":"六本木","station_name_k":"ろっぽんぎ","station_name_r":"ROPPONNGI","pref_cd":13,"post":"106-0032","add":"港区六本木６-１-２５","lon":139.731443,"lat":35.662836,"e_status":0,"e_sort":2800318,"company_cd":18,"line_name":"東京メトロ日比谷線","line_name_k":"ヒビヤセン","line_name_h":"東京メトロ日比谷線","line_color_c":"89A1AD"},
{"line_cd":28003,"station_cd":2800319,"Alphabet":"H","Number":"03","station_g_cd":2800319,"station_name":"広尾","station_name_k":"ひろお","station_name_r":"HIROO","pref_cd":13,"post":"106-0047","add":"港区南麻布５-１０-２８","lon":139.722202,"lat":35.652279,"e_status":0,"e_sort":2800319,"company_cd":18,"line_name":"東京メトロ日比谷線","line_name_k":"ヒビヤセン","line_name_h":"東京メトロ日比谷線","line_color_c":"89A1AD"},
{"line_cd":28003,"station_cd":2800320,"Alphabet":"H","Number":"02","station_g_cd":1130204,"station_name":"恵比寿","station_name_k":"えびす","station_name_r":"EBISU","pref_cd":13,"post":" ","add":"東京都渋谷区恵比寿南一丁目5-5","lon":139.708988,"lat":35.647332,"e_status":0,"e_sort":2800320,"company_cd":18,"line_name":"東京メトロ日比谷線","line_name_k":"ヒビヤセン","line_name_h":"東京メトロ日比谷線","line_color_c":"89A1AD"},
{"line_cd":28003,"station_cd":2800321,"Alphabet":"H","Number":"01","station_g_cd":2600103,"station_name":"中目黒","station_name_k":"なかめぐろ","station_name_r":"NAKAMEGURO","pref_cd":13,"post":"153-0051","add":"目黒区上目黒３-４-１","lon":139.698621,"lat":35.643854,"e_status":0,"e_sort":2800321,"company_cd":18,"line_name":"東京メトロ日比谷線","line_name_k":"ヒビヤセン","line_name_h":"東京メトロ日比谷線","line_color_c":"89A1AD"},
{"line_cd":28004,"station_cd":2800401,"Alphabet":"T","Number":"01","station_g_cd":1131214,"station_name":"中野","station_name_k":"なかの","station_name_r":"NAKANO","pref_cd":13,"post":"164-0001","add":"中野区中野５丁目","lon":139.665835,"lat":35.705765,"e_status":0,"e_sort":2800401,"company_cd":18,"line_name":"東京メトロ東西線","line_name_k":"トウザイセン","line_name_h":"東京メトロ東西線","line_color_c":"00A7DB"},
{"line_cd":28004,"station_cd":2800402,"Alphabet":"T","Number":"02","station_g_cd":2800402,"station_name":"落合","station_name_k":"おちあい","station_name_r":"OCHIAI","pref_cd":13,"post":"161-0034","add":"新宿区上落合２-１３-７","lon":139.687284,"lat":35.710976,"e_status":0,"e_sort":2800402,"company_cd":18,"line_name":"東京メトロ東西線","line_name_k":"トウザイセン","line_name_h":"東京メトロ東西線","line_color_c":"00A7DB"},
{"line_cd":28004,"station_cd":2800403,"Alphabet":"T","Number":"03","station_g_cd":1130210,"station_name":"高田馬場","station_name_k":"たかだのばば","station_name_r":"TAKADANOBABA","pref_cd":13,"post":" ","add":"東京都新宿区高田馬場一丁目35-1","lon":139.704745,"lat":35.713338,"e_status":0,"e_sort":2800403,"company_cd":18,"line_name":"東京メトロ東西線","line_name_k":"トウザイセン","line_name_h":"東京メトロ東西線","line_color_c":"00A7DB"},
{"line_cd":28004,"station_cd":2800404,"Alphabet":"T","Number":"04","station_g_cd":2800404,"station_name":"早稲田","station_name_k":"わせだ","station_name_r":"WASEDA","pref_cd":13,"post":" ","add":"東京都新宿区","lon":139.721319,"lat":35.705723,"e_status":0,"e_sort":2800404,"company_cd":18,"line_name":"東京メトロ東西線","line_name_k":"トウザイセン","line_name_h":"東京メトロ東西線","line_color_c":"00A7DB"},
{"line_cd":28004,"station_cd":2800405,"Alphabet":"T","Number":"05","station_g_cd":2800405,"station_name":"神楽坂","station_name_k":"かぐらざか","station_name_r":"KAGURAZAKA","pref_cd":13,"post":"162-0805","add":"新宿区矢来町１１２","lon":139.734546,"lat":35.70379,"e_status":0,"e_sort":2800405,"company_cd":18,"line_name":"東京メトロ東西線","line_name_k":"トウザイセン","line_name_h":"東京メトロ東西線","line_color_c":"00A7DB"},
{"line_cd":28004,"station_cd":2800406,"Alphabet":"T","Number":"06","station_g_cd":1131205,"station_name":"飯田橋","station_name_k":"いいだばし","station_name_r":"IIDABASHI","pref_cd":13,"post":" ","add":"東京都千代田区飯田橋四丁目10-3","lon":139.745986,"lat":35.701725,"e_status":0,"e_sort":2800406,"company_cd":18,"line_name":"東京メトロ東西線","line_name_k":"トウザイセン","line_name_h":"東京メトロ東西線","line_color_c":"00A7DB"},
{"line_cd":28004,"station_cd":2800407,"Alphabet":"T","Number":"07","station_g_cd":2800407,"station_name":"九段下","station_name_k":"くだんした","station_name_r":"KUDANNSHITA","pref_cd":13,"post":"102-0074","add":"千代田区九段南１-６-１","lon":139.751948,"lat":35.695589,"e_status":0,"e_sort":2800407,"company_cd":18,"line_name":"東京メトロ東西線","line_name_k":"トウザイセン","line_name_h":"東京メトロ東西線","line_color_c":"00A7DB"},
{"line_cd":28004,"station_cd":2800408,"Alphabet":"T","Number":"08","station_g_cd":2800408,"station_name":"竹橋","station_name_k":"たけばし","station_name_r":"TAKEBASHI","pref_cd":13,"post":"100-0003","add":"千代田区一ツ橋１-１-１","lon":139.756817,"lat":35.690662,"e_status":0,"e_sort":2800408,"company_cd":18,"line_name":"東京メトロ東西線","line_name_k":"トウザイセン","line_name_h":"東京メトロ東西線","line_color_c":"00A7DB"},
{"line_cd":28004,"station_cd":2800409,"Alphabet":"T","Number":"09","station_g_cd":2800208,"station_name":"大手町","station_name_k":"おおてまち","station_name_r":"OOTEMACHI","pref_cd":13,"post":"100-0004","add":"千代田区大手町１丁目","lon":139.766086,"lat":35.684801,"e_status":0,"e_sort":2800409,"company_cd":18,"line_name":"東京メトロ東西線","line_name_k":"トウザイセン","line_name_h":"東京メトロ東西線","line_color_c":"00A7DB"},
{"line_cd":28004,"station_cd":2800410,"Alphabet":"T","Number":"10","station_g_cd":2800109,"station_name":"日本橋","station_name_k":"にほんばし","station_name_r":"NIHONNBASHI","pref_cd":13,"post":"103-0027","add":"中央区日本橋１丁目","lon":139.773516,"lat":35.682078,"e_status":0,"e_sort":2800410,"company_cd":18,"line_name":"東京メトロ東西線","line_name_k":"トウザイセン","line_name_h":"東京メトロ東西線","line_color_c":"00A7DB"},
{"line_cd":28004,"station_cd":2800411,"Alphabet":"T","Number":"11","station_g_cd":2800310,"station_name":"茅場町","station_name_k":"かやばちょう","station_name_r":"KAYABACHOU","pref_cd":13,"post":"103-0025","add":"中央区日本橋茅場町１-４-６","lon":139.780005,"lat":35.679752,"e_status":0,"e_sort":2800411,"company_cd":18,"line_name":"東京メトロ東西線","line_name_k":"トウザイセン","line_name_h":"東京メトロ東西線","line_color_c":"00A7DB"},
{"line_cd":28004,"station_cd":2800412,"Alphabet":"T","Number":"12","station_g_cd":2800412,"station_name":"門前仲町","station_name_k":"もんぜんなかちょう","station_name_r":"MONZENNAKACHO","pref_cd":13,"post":"135-0048","add":"江東区門前仲町１丁目","lon":139.796209,"lat":35.671851,"e_status":0,"e_sort":2800412,"company_cd":18,"line_name":"東京メトロ東西線","line_name_k":"トウザイセン","line_name_h":"東京メトロ東西線","line_color_c":"00A7DB"},
{"line_cd":28004,"station_cd":2800413,"Alphabet":"T","Number":"13","station_g_cd":2800413,"station_name":"木場","station_name_k":"きば","station_name_r":"KIBA","pref_cd":13,"post":"135-0042","add":"江東区木場５-５-１","lon":139.807042,"lat":35.669351,"e_status":0,"e_sort":2800413,"company_cd":18,"line_name":"東京メトロ東西線","line_name_k":"トウザイセン","line_name_h":"東京メトロ東西線","line_color_c":"00A7DB"},
{"line_cd":28004,"station_cd":2800414,"Alphabet":"T","Number":"14","station_g_cd":2800414,"station_name":"東陽町","station_name_k":"とうようちょう","station_name_r":"TOYOCHO","pref_cd":13,"post":"135-0016","add":"江東区東陽４-２-１","lon":139.817596,"lat":35.669629,"e_status":0,"e_sort":2800414,"company_cd":18,"line_name":"東京メトロ東西線","line_name_k":"トウザイセン","line_name_h":"東京メトロ東西線","line_color_c":"00A7DB"},
{"line_cd":28004,"station_cd":2800415,"Alphabet":"T","Number":"15","station_g_cd":2800415,"station_name":"南砂町","station_name_k":"みなみすなまち","station_name_r":"MINAMISUNAMACHI","pref_cd":13,"post":"136-0076","add":"江東区南砂３-１１-８５","lon":139.83065,"lat":35.668796,"e_status":0,"e_sort":2800415,"company_cd":18,"line_name":"東京メトロ東西線","line_name_k":"トウザイセン","line_name_h":"東京メトロ東西線","line_color_c":"00A7DB"},
{"line_cd":28004,"station_cd":2800416,"Alphabet":"T","Number":"16","station_g_cd":2800416,"station_name":"西葛西","station_name_k":"にしかさい","station_name_r":"NISHIKASAI","pref_cd":13,"post":"134-0088","add":"江戸川区西葛西６-１４-１","lon":139.859259,"lat":35.664631,"e_status":0,"e_sort":2800416,"company_cd":18,"line_name":"東京メトロ東西線","line_name_k":"トウザイセン","line_name_h":"東京メトロ東西線","line_color_c":"00A7DB"},
{"line_cd":28004,"station_cd":2800417,"Alphabet":"T","Number":"17","station_g_cd":2800417,"station_name":"葛西","station_name_k":"かさい","station_name_r":"KASAI","pref_cd":13,"post":"134-0083","add":"江戸川区中葛西５-４３-１１","lon":139.872458,"lat":35.663554,"e_status":0,"e_sort":2800417,"company_cd":18,"line_name":"東京メトロ東西線","line_name_k":"トウザイセン","line_name_h":"東京メトロ東西線","line_color_c":"00A7DB"},
{"line_cd":28004,"station_cd":2800418,"Alphabet":"T","Number":"18","station_g_cd":2800418,"station_name":"浦安","station_name_k":"うらやす","station_name_r":"URAYASU","pref_cd":12,"post":"279-0002","add":"浦安市北栄１-１３-１","lon":139.893193,"lat":35.665932,"e_status":0,"e_sort":2800418,"company_cd":18,"line_name":"東京メトロ東西線","line_name_k":"トウザイセン","line_name_h":"東京メトロ東西線","line_color_c":"00A7DB"},
{"line_cd":28004,"station_cd":2800419,"Alphabet":"T","Number":"19","station_g_cd":2800419,"station_name":"南行徳","station_name_k":"みなみぎょうとく","station_name_r":"MINAMIGYOTOKU","pref_cd":12,"post":"272-0143","add":"市川市相之川４-１７-１","lon":139.902311,"lat":35.672687,"e_status":0,"e_sort":2800419,"company_cd":18,"line_name":"東京メトロ東西線","line_name_k":"トウザイセン","line_name_h":"東京メトロ東西線","line_color_c":"00A7DB"},
{"line_cd":28004,"station_cd":2800420,"Alphabet":"T","Number":"20","station_g_cd":2800420,"station_name":"行徳","station_name_k":"ぎょうとく","station_name_r":"GYOTOKU","pref_cd":12,"post":"272-0133","add":"市川市行徳駅前２-４-１","lon":139.914254,"lat":35.682686,"e_status":0,"e_sort":2800420,"company_cd":18,"line_name":"東京メトロ東西線","line_name_k":"トウザイセン","line_name_h":"東京メトロ東西線","line_color_c":"00A7DB"},
{"line_cd":28004,"station_cd":2800421,"Alphabet":"T","Number":"21","station_g_cd":2800421,"station_name":"妙典","station_name_k":"みょうでん","station_name_r":"MYODEN","pref_cd":12,"post":"272-0115","add":"市川市富浜１-２-１０","lon":139.924209,"lat":35.690935,"e_status":0,"e_sort":2800421,"company_cd":18,"line_name":"東京メトロ東西線","line_name_k":"トウザイセン","line_name_h":"東京メトロ東西線","line_color_c":"00A7DB"},
{"line_cd":28004,"station_cd":2800422,"Alphabet":"T","Number":"22","station_g_cd":2800422,"station_name":"原木中山","station_name_k":"あつぎなかやま","station_name_r":"ATSUGINAKAYAMA","pref_cd":12,"post":"273-0035","add":"船橋市本中山７-７-１","lon":139.942029,"lat":35.703517,"e_status":0,"e_sort":2800422,"company_cd":18,"line_name":"東京メトロ東西線","line_name_k":"トウザイセン","line_name_h":"東京メトロ東西線","line_color_c":"00A7DB"},
{"line_cd":28004,"station_cd":2800423,"Alphabet":"T","Number":"23","station_g_cd":1130524,"station_name":"西船橋","station_name_k":"にしふなばし","station_name_r":"NISHIFUNABASHI","pref_cd":12,"post":"273-0031","add":"船橋市西船４丁目","lon":139.958972,"lat":35.707127,"e_status":0,"e_sort":2800423,"company_cd":18,"line_name":"東京メトロ東西線","line_name_k":"トウザイセン","line_name_h":"東京メトロ東西線","line_color_c":"00A7DB"},
{"line_cd":28005,"station_cd":2800501,"Alphabet":"C","Number":"20","station_g_cd":2800501,"station_name":"北綾瀬","station_name_k":"きたあやせ","station_name_r":"KITAAYASE","pref_cd":13,"post":"120-0006","add":"足立区谷中２丁目","lon":139.832035,"lat":35.777117,"e_status":0,"e_sort":2800501,"company_cd":18,"line_name":"東京メトロ千代田線","line_name_k":"チヨダセン","line_name_h":"東京メトロ千代田線","line_color_c":"009933"},
{"line_cd":28005,"station_cd":2800502,"Alphabet":"C","Number":"19","station_g_cd":1132006,"station_name":"綾瀬","station_name_k":"あやせ","station_name_r":"AYASE","pref_cd":13,"post":"120-0005","add":"足立区綾瀬３丁目","lon":139.825019,"lat":35.762222,"e_status":0,"e_sort":2800502,"company_cd":18,"line_name":"東京メトロ千代田線","line_name_k":"チヨダセン","line_name_h":"東京メトロ千代田線","line_color_c":"009933"},
{"line_cd":28005,"station_cd":2800503,"Alphabet":"C","Number":"18","station_g_cd":1132005,"station_name":"北千住","station_name_k":"きたせんじゅ","station_name_r":"KITASENJU","pref_cd":13,"post":"120-0026","add":"足立区千住旭町","lon":139.804276,"lat":35.748916,"e_status":0,"e_sort":2800503,"company_cd":18,"line_name":"東京メトロ千代田線","line_name_k":"チヨダセン","line_name_h":"東京メトロ千代田線","line_color_c":"009933"},
{"line_cd":28005,"station_cd":2800504,"Alphabet":"C","Number":"17","station_g_cd":2300104,"station_name":"町屋","station_name_k":"まちや","station_name_r":"MACHIYA","pref_cd":13,"post":"116-0001","add":"荒川区町屋１丁目","lon":139.780501,"lat":35.742733,"e_status":0,"e_sort":2800504,"company_cd":18,"line_name":"東京メトロ千代田線","line_name_k":"チヨダセン","line_name_h":"東京メトロ千代田線","line_color_c":"009933"},
{"line_cd":28005,"station_cd":2800505,"Alphabet":"C","Number":"16","station_g_cd":1130217,"station_name":"西日暮里","station_name_k":"にしにっぽり","station_name_r":"NISHINIPPORI","pref_cd":13,"post":" ","add":"東京都荒川区西日暮里五丁目14-1","lon":139.766511,"lat":35.732257,"e_status":0,"e_sort":2800505,"company_cd":18,"line_name":"東京メトロ千代田線","line_name_k":"チヨダセン","line_name_h":"東京メトロ千代田線","line_color_c":"009933"},
{"line_cd":28005,"station_cd":2800506,"Alphabet":"C","Number":"15","station_g_cd":2800506,"station_name":"千駄木","station_name_k":"せんだぎ","station_name_r":"SENDAGI","pref_cd":13,"post":"113-0022","add":"文京区千駄木２丁目","lon":139.763243,"lat":35.725549,"e_status":0,"e_sort":2800506,"company_cd":18,"line_name":"東京メトロ千代田線","line_name_k":"チヨダセン","line_name_h":"東京メトロ千代田線","line_color_c":"009933"},
{"line_cd":28005,"station_cd":2800507,"Alphabet":"C","Number":"14","station_g_cd":2800507,"station_name":"根津","station_name_k":"ねづ","station_name_r":"NEZU","pref_cd":13,"post":"113-0031","add":"文京区根津１丁目","lon":139.765655,"lat":35.7174,"e_status":0,"e_sort":2800507,"company_cd":18,"line_name":"東京メトロ千代田線","line_name_k":"チヨダセン","line_name_h":"東京メトロ千代田線","line_color_c":"009933"},
{"line_cd":28005,"station_cd":2800508,"Alphabet":"C","Number":"13","station_g_cd":2800508,"station_name":"湯島","station_name_k":"ゆしま","station_name_r":"YUSHIMA","pref_cd":13,"post":"113-0034","add":"文京区湯島３丁目","lon":139.769916,"lat":35.708243,"e_status":0,"e_sort":2800508,"company_cd":18,"line_name":"東京メトロ千代田線","line_name_k":"チヨダセン","line_name_h":"東京メトロ千代田線","line_color_c":"009933"},
{"line_cd":28005,"station_cd":2800509,"Alphabet":"C","Number":"12","station_g_cd":1131203,"station_name":"新御茶ノ水","station_name_k":"しんおちゃのみず","station_name_r":"SHINOCHANOMIZU","pref_cd":13,"post":"101-0062","add":"千代田区神田駿河台３丁目","lon":139.766014,"lat":35.698072,"e_status":0,"e_sort":2800509,"company_cd":18,"line_name":"東京メトロ千代田線","line_name_k":"チヨダセン","line_name_h":"東京メトロ千代田線","line_color_c":"009933"},
{"line_cd":28005,"station_cd":2800510,"Alphabet":"C","Number":"11","station_g_cd":2800208,"station_name":"大手町","station_name_k":"おおてまち","station_name_r":"OTEMACHI","pref_cd":13,"post":"100-0004","add":"千代田区大手町１丁目","lon":139.763399,"lat":35.686154,"e_status":0,"e_sort":2800510,"company_cd":18,"line_name":"東京メトロ千代田線","line_name_k":"チヨダセン","line_name_h":"東京メトロ千代田線","line_color_c":"009933"},
{"line_cd":28005,"station_cd":2800511,"Alphabet":"C","Number":"10","station_g_cd":2800511,"station_name":"二重橋前","station_name_k":"にじゅうばしまえ","station_name_r":"NIJUBASHIMAE","pref_cd":13,"post":"100-0005","add":"千代田区丸の内２丁目","lon":139.761948,"lat":35.681071,"e_status":0,"e_sort":2800511,"company_cd":18,"line_name":"東京メトロ千代田線","line_name_k":"チヨダセン","line_name_h":"東京メトロ千代田線","line_color_c":"009933"},
{"line_cd":28005,"station_cd":2800512,"Alphabet":"C","Number":"09","station_g_cd":2800315,"station_name":"日比谷","station_name_k":"ひびや","station_name_r":"HIBIYA","pref_cd":13,"post":"100-0006","add":"千代田区有楽町１丁目","lon":139.758732,"lat":35.674241,"e_status":0,"e_sort":2800512,"company_cd":18,"line_name":"東京メトロ千代田線","line_name_k":"チヨダセン","line_name_h":"東京メトロ千代田線","line_color_c":"009933"},
{"line_cd":28005,"station_cd":2800513,"Alphabet":"C","Number":"08","station_g_cd":2800211,"station_name":"霞ケ関","station_name_k":"かすみがせき","station_name_r":"KASUMIGASEKI","pref_cd":13,"post":"100-0013","add":"千代田区霞が関２丁目","lon":139.750899,"lat":35.673838,"e_status":0,"e_sort":2800513,"company_cd":18,"line_name":"東京メトロ千代田線","line_name_k":"チヨダセン","line_name_h":"東京メトロ千代田線","line_color_c":"009933"},
{"line_cd":28005,"station_cd":2800514,"Alphabet":"C","Number":"07","station_g_cd":2800212,"station_name":"国会議事堂前","station_name_k":"こっかいぎじどうまえ","station_name_r":"KOKKAIGIJIDOMAE","pref_cd":13,"post":"100-0014","add":"千代田区永田町１丁目","lon":139.745219,"lat":35.67393,"e_status":0,"e_sort":2800514,"company_cd":18,"line_name":"東京メトロ千代田線","line_name_k":"チヨダセン","line_name_h":"東京メトロ千代田線","line_color_c":"009933"},
{"line_cd":28005,"station_cd":2800515,"Alphabet":"C","Number":"06","station_g_cd":2800515,"station_name":"赤坂","station_name_k":"あかさか","station_name_r":"AKASAKA","pref_cd":13,"post":"107-0052","add":"港区赤坂５丁目","lon":139.738348,"lat":35.67323,"e_status":0,"e_sort":2800515,"company_cd":18,"line_name":"東京メトロ千代田線","line_name_k":"チヨダセン","line_name_h":"東京メトロ千代田線","line_color_c":"009933"},
{"line_cd":28005,"station_cd":2800516,"Alphabet":"C","Number":"05","station_g_cd":2800516,"station_name":"乃木坂","station_name_k":"のぎざか","station_name_r":"NOGIZAKA","pref_cd":13,"post":"107-0062","add":"港区南青山１丁目","lon":139.726215,"lat":35.666572,"e_status":0,"e_sort":2800516,"company_cd":18,"line_name":"東京メトロ千代田線","line_name_k":"チヨダセン","line_name_h":"東京メトロ千代田線","line_color_c":"009933"},
{"line_cd":28005,"station_cd":2800517,"Alphabet":"C","Number":"04","station_g_cd":2800118,"station_name":"表参道","station_name_k":"おもてさんどう","station_name_r":"OMOTESANDO","pref_cd":13,"post":"107-0061","add":"港区北青山３丁目","lon":139.712314,"lat":35.665247,"e_status":0,"e_sort":2800517,"company_cd":18,"line_name":"東京メトロ千代田線","line_name_k":"チヨダセン","line_name_h":"東京メトロ千代田線","line_color_c":"009933"},
{"line_cd":28005,"station_cd":2800518,"Alphabet":"C","Number":"03","station_g_cd":1130206,"station_name":"明治神宮前〈原宿〉","station_name_k":"めいじじんぐう（はらじゅく）","station_name_r":"MEIJIJINGU（HARAJUKU）","pref_cd":13,"post":"150-0001","add":"渋谷区神宮前１丁目","lon":139.703995,"lat":35.669071,"e_status":0,"e_sort":2800518,"company_cd":18,"line_name":"東京メトロ千代田線","line_name_k":"チヨダセン","line_name_h":"東京メトロ千代田線","line_color_c":"009933"},
{"line_cd":28005,"station_cd":2800519,"Alphabet":"C","Number":"02","station_g_cd":2500104,"station_name":"代々木公園","station_name_k":"よよぎこうえん","station_name_r":"YOYOGIKOEN","pref_cd":13,"post":"151-0063","add":"渋谷区富ケ谷１丁目","lon":139.689099,"lat":35.669187,"e_status":0,"e_sort":2800519,"company_cd":18,"line_name":"東京メトロ千代田線","line_name_k":"チヨダセン","line_name_h":"東京メトロ千代田線","line_color_c":"009933"},
{"line_cd":28005,"station_cd":2800520,"Alphabet":"C","Number":"01","station_g_cd":2500105,"station_name":"代々木上原","station_name_k":"よよぎうえはら","station_name_r":"YOYOGIUEHARA","pref_cd":13,"post":"151-0066","add":"渋谷区西原３丁目","lon":139.680153,"lat":35.669159,"e_status":0,"e_sort":2800520,"company_cd":18,"line_name":"東京メトロ千代田線","line_name_k":"チヨダセン","line_name_h":"東京メトロ千代田線","line_color_c":"009933"},
{"line_cd":28006,"station_cd":2800601,"Alphabet":"Y","Number":"01","station_g_cd":2100111,"station_name":"和光市","station_name_k":"わこうし","station_name_r":"WAKOSHI","pref_cd":11,"post":"351-0114","add":"埼玉県和光市本町4-6","lon":139.612434,"lat":35.788507,"e_status":0,"e_sort":2800601,"company_cd":18,"line_name":"東京メトロ有楽町線","line_name_k":"ユウラクチョウセン","line_name_h":"東京メトロ有楽町線","line_color_c":"C5C544"},
{"line_cd":28006,"station_cd":2800602,"Alphabet":"Y","Number":"02","station_g_cd":2100110,"station_name":"地下鉄成増","station_name_k":"ちかてつなります","station_name_r":"CHIKATETSUNARIMASU","pref_cd":13,"post":"175-0094","add":"東京都板橋区成増二丁目11-3","lon":139.631497,"lat":35.776557,"e_status":0,"e_sort":2800602,"company_cd":18,"line_name":"東京メトロ有楽町線","line_name_k":"ユウラクチョウセン","line_name_h":"東京メトロ有楽町線","line_color_c":"C5C544"},
{"line_cd":28006,"station_cd":2800603,"Alphabet":"Y","Number":"03","station_g_cd":2100109,"station_name":"地下鉄赤塚","station_name_k":"ちかてつあかつか","station_name_r":"CHIKATETSUAKATSUKA","pref_cd":13,"post":"179-0081","add":"東京都練馬区北町八丁目37-16","lon":139.644021,"lat":35.769939,"e_status":0,"e_sort":2800603,"company_cd":18,"line_name":"東京メトロ有楽町線","line_name_k":"ユウラクチョウセン","line_name_h":"東京メトロ有楽町線","line_color_c":"C5C544"},
{"line_cd":28006,"station_cd":2800604,"Alphabet":"Y","Number":"04","station_g_cd":2800604,"station_name":"平和台","station_name_k":"へいわだい","station_name_r":"HEWADAI","pref_cd":13,"post":"179-0085","add":"東京都練馬区早宮2-17-48","lon":139.653762,"lat":35.757863,"e_status":0,"e_sort":2800604,"company_cd":18,"line_name":"東京メトロ有楽町線","line_name_k":"ユウラクチョウセン","line_name_h":"東京メトロ有楽町線","line_color_c":"C5C544"},
{"line_cd":28006,"station_cd":2800605,"Alphabet":"Y","Number":"05","station_g_cd":2800605,"station_name":"氷川台","station_name_k":"ひかわだい","station_name_r":"HIKAWADAI","pref_cd":13,"post":"179-0084","add":"東京都練馬区氷川台三丁目38-18","lon":139.665567,"lat":35.74955,"e_status":0,"e_sort":2800605,"company_cd":18,"line_name":"東京メトロ有楽町線","line_name_k":"ユウラクチョウセン","line_name_h":"東京メトロ有楽町線","line_color_c":"C5C544"},
{"line_cd":28006,"station_cd":2800606,"Alphabet":"Y","Number":"06","station_g_cd":2200301,"station_name":"小竹向原","station_name_k":"こたけむかいはら","station_name_r":"KOTAKEMUKAIHARA","pref_cd":13,"post":"176-0004","add":"東京都練馬区小竹町二丁目16-15","lon":139.678572,"lat":35.743803,"e_status":0,"e_sort":2800606,"company_cd":18,"line_name":"東京メトロ有楽町線","line_name_k":"ユウラクチョウセン","line_name_h":"東京メトロ有楽町線","line_color_c":"C5C544"},
{"line_cd":28006,"station_cd":2800607,"Alphabet":"Y","Number":"07","station_g_cd":2800607,"station_name":"千川","station_name_k":"せんかわ","station_name_r":"SENKAWA","pref_cd":13,"post":"171-0043","add":"東京都豊島区要町三丁目10-7","lon":139.689271,"lat":35.738229,"e_status":0,"e_sort":2800607,"company_cd":18,"line_name":"東京メトロ有楽町線","line_name_k":"ユウラクチョウセン","line_name_h":"東京メトロ有楽町線","line_color_c":"C5C544"},
{"line_cd":28006,"station_cd":2800608,"Alphabet":"Y","Number":"08","station_g_cd":2800608,"station_name":"要町","station_name_k":"かなめちょう","station_name_r":"KANAMECHO","pref_cd":13,"post":"171-0043","add":"東京都豊島区要町一丁目1-10","lon":139.698715,"lat":35.73323,"e_status":0,"e_sort":2800608,"company_cd":18,"line_name":"東京メトロ有楽町線","line_name_k":"ユウラクチョウセン","line_name_h":"東京メトロ有楽町線","line_color_c":"C5C544"},
{"line_cd":28006,"station_cd":2800609,"Alphabet":"Y","Number":"09","station_g_cd":1130212,"station_name":"池袋","station_name_k":"いけぶくろ","station_name_r":"IKEBUKURO","pref_cd":13,"post":"171-0021","add":"東京都豊島区西池袋三丁目28-14","lon":139.710088,"lat":35.729565,"e_status":0,"e_sort":2800609,"company_cd":18,"line_name":"東京メトロ有楽町線","line_name_k":"ユウラクチョウセン","line_name_h":"東京メトロ有楽町線","line_color_c":"C5C544"},
{"line_cd":28006,"station_cd":2800610,"Alphabet":"Y","Number":"10","station_g_cd":2800610,"station_name":"東池袋","station_name_k":"ひがしいけぶくろ","station_name_r":"HIGASHIIKEBUKURO","pref_cd":13,"post":"170-0013","add":"東京都豊島区東池袋四丁目4-4","lon":139.719546,"lat":35.725732,"e_status":0,"e_sort":2800610,"company_cd":18,"line_name":"東京メトロ有楽町線","line_name_k":"ユウラクチョウセン","line_name_h":"東京メトロ有楽町線","line_color_c":"C5C544"},
{"line_cd":28006,"station_cd":2800611,"Alphabet":"Y","Number":"11","station_g_cd":2800611,"station_name":"護国寺","station_name_k":"ごこくじ","station_name_r":"GOKOKUJI","pref_cd":13,"post":"112-0012","add":"東京都文京区大塚五丁目40-8","lon":139.72754,"lat":35.719044,"e_status":0,"e_sort":2800611,"company_cd":18,"line_name":"東京メトロ有楽町線","line_name_k":"ユウラクチョウセン","line_name_h":"東京メトロ有楽町線","line_color_c":"C5C544"},
{"line_cd":28006,"station_cd":2800612,"Alphabet":"Y","Number":"12","station_g_cd":2800612,"station_name":"江戸川橋","station_name_k":"えどがわばし","station_name_r":"EDOGAWABASHI","pref_cd":13,"post":"112-0014","add":"東京都文京区関口一丁目19-6","lon":139.733538,"lat":35.709495,"e_status":0,"e_sort":2800612,"company_cd":18,"line_name":"東京メトロ有楽町線","line_name_k":"ユウラクチョウセン","line_name_h":"東京メトロ有楽町線","line_color_c":"C5C544"},
{"line_cd":28006,"station_cd":2800613,"Alphabet":"Y","Number":"13","station_g_cd":1131205,"station_name":"飯田橋","station_name_k":"いいだばし","station_name_r":"IDABASHI","pref_cd":13,"post":"162-0825","add":"東京都新宿区神楽坂一丁目13","lon":139.743669,"lat":35.701934,"e_status":0,"e_sort":2800613,"company_cd":18,"line_name":"東京メトロ有楽町線","line_name_k":"ユウラクチョウセン","line_name_h":"東京メトロ有楽町線","line_color_c":"C5C544"},
{"line_cd":28006,"station_cd":2800614,"Alphabet":"Y","Number":"14","station_g_cd":1131206,"station_name":"市ケ谷","station_name_k":"いちがや","station_name_r":"ICHIGAYA","pref_cd":13,"post":"162-0843","add":"東京都新宿区市谷田町一丁目1","lon":139.73647,"lat":35.691958,"e_status":0,"e_sort":2800614,"company_cd":18,"line_name":"東京メトロ有楽町線","line_name_k":"ユウラクチョウセン","line_name_h":"東京メトロ有楽町線","line_color_c":"C5C544"},
{"line_cd":28006,"station_cd":2800615,"Alphabet":"Y","Number":"15","station_g_cd":2800615,"station_name":"麹町","station_name_k":"こうじまち","station_name_r":"KOUJIMACHI","pref_cd":13,"post":"102-0083","add":"東京都千代田区麹町三丁目2","lon":139.737613,"lat":35.684006,"e_status":0,"e_sort":2800615,"company_cd":18,"line_name":"東京メトロ有楽町線","line_name_k":"ユウラクチョウセン","line_name_h":"東京メトロ有楽町線","line_color_c":"C5C544"},
{"line_cd":28006,"station_cd":2800616,"Alphabet":"Y","Number":"16","station_g_cd":2800115,"station_name":"永田町","station_name_k":"ながたちょう","station_name_r":"NAGATACHO","pref_cd":13,"post":"100-0014","add":"東京都千代田区永田町一丁目11-28","lon":139.740258,"lat":35.678757,"e_status":0,"e_sort":2800616,"company_cd":18,"line_name":"東京メトロ有楽町線","line_name_k":"ユウラクチョウセン","line_name_h":"東京メトロ有楽町線","line_color_c":"C5C544"},
{"line_cd":28006,"station_cd":2800617,"Alphabet":"Y","Number":"17","station_g_cd":2800617,"station_name":"桜田門","station_name_k":"さくらだもん","station_name_r":"SAKURADAMON","pref_cd":13,"post":"100-0013","add":"東京都千代田区霞が関二丁目1-1","lon":139.75149,"lat":35.677405,"e_status":0,"e_sort":2800617,"company_cd":18,"line_name":"東京メトロ有楽町線","line_name_k":"ユウラクチョウセン","line_name_h":"東京メトロ有楽町線","line_color_c":"C5C544"},
{"line_cd":28006,"station_cd":2800618,"Alphabet":"Y","Number":"18","station_g_cd":1130225,"station_name":"有楽町","station_name_k":"ゆうらくちょう","station_name_r":"YURAKUCHO","pref_cd":13,"post":"100-0006","add":"東京都千代田区有楽町一丁目11-1","lon":139.763265,"lat":35.675714,"e_status":0,"e_sort":2800618,"company_cd":18,"line_name":"東京メトロ有楽町線","line_name_k":"ユウラクチョウセン","line_name_h":"東京メトロ有楽町線","line_color_c":"C5C544"},
{"line_cd":28006,"station_cd":2800619,"Alphabet":"Y","Number":"19","station_g_cd":2800619,"station_name":"銀座一丁目","station_name_k":"ぎんざいっちょうめ","station_name_r":"GINZAICCHOME","pref_cd":13,"post":"104-0061","add":"東京都中央区銀座一丁目7-12","lon":139.767045,"lat":35.67435,"e_status":0,"e_sort":2800619,"company_cd":18,"line_name":"東京メトロ有楽町線","line_name_k":"ユウラクチョウセン","line_name_h":"東京メトロ有楽町線","line_color_c":"C5C544"},
{"line_cd":28006,"station_cd":2800620,"Alphabet":"Y","Number":"20","station_g_cd":2800620,"station_name":"新富町","station_name_k":"しんとみちょう","station_name_r":"SHINTOMICHO","pref_cd":13,"post":"104-0045","add":"東京都中央区築地一丁目1-1","lon":139.773711,"lat":35.670462,"e_status":0,"e_sort":2800620,"company_cd":18,"line_name":"東京メトロ有楽町線","line_name_k":"ユウラクチョウセン","line_name_h":"東京メトロ有楽町線","line_color_c":"C5C544"},
{"line_cd":28006,"station_cd":2800621,"Alphabet":"Y","Number":"21","station_g_cd":2800621,"station_name":"月島","station_name_k":"つきしま","station_name_r":"TSUKISHIMA","pref_cd":13,"post":"104-0052","add":"東京都中央区月島一丁目3-9","lon":139.784233,"lat":35.664871,"e_status":0,"e_sort":2800621,"company_cd":18,"line_name":"東京メトロ有楽町線","line_name_k":"ユウラクチョウセン","line_name_h":"東京メトロ有楽町線","line_color_c":"C5C544"},
{"line_cd":28006,"station_cd":2800622,"Alphabet":"Y","Number":"22","station_g_cd":2800622,"station_name":"豊洲","station_name_k":"とよす","station_name_r":"TOYOSU","pref_cd":13,"post":"135-0061","add":"東京都江東区豊洲四丁目1-1","lon":139.79621,"lat":35.654908,"e_status":0,"e_sort":2800622,"company_cd":18,"line_name":"東京メトロ有楽町線","line_name_k":"ユウラクチョウセン","line_name_h":"東京メトロ有楽町線","line_color_c":"C5C544"},
{"line_cd":28006,"station_cd":2800623,"Alphabet":"Y","Number":"23","station_g_cd":2800623,"station_name":"辰巳","station_name_k":"たつみ","station_name_r":"TATSUMI","pref_cd":13,"post":"135-0053","add":"東京都江東区辰巳一丁目1-44","lon":139.81052,"lat":35.645576,"e_status":0,"e_sort":2800623,"company_cd":18,"line_name":"東京メトロ有楽町線","line_name_k":"ユウラクチョウセン","line_name_h":"東京メトロ有楽町線","line_color_c":"C5C544"},
{"line_cd":28006,"station_cd":2800624,"Alphabet":"Y","Number":"24","station_g_cd":1132605,"station_name":"新木場","station_name_k":"しんきば","station_name_r":"SHINKIBA","pref_cd":13,"post":"136-0082","add":"東京都江東区新木場一丁目6","lon":139.826254,"lat":35.645832,"e_status":0,"e_sort":2800624,"company_cd":18,"line_name":"東京メトロ有楽町線","line_name_k":"ユウラクチョウセン","line_name_h":"東京メトロ有楽町線","line_color_c":"C5C544"},
{"line_cd":28008,"station_cd":2800801,"Alphabet":"Z","Number":"01","station_g_cd":1130205,"station_name":"渋谷","station_name_k":"しぶや","station_name_r":"SHIBUYA","pref_cd":13,"post":" ","add":"東京都渋谷区道玄坂二丁目1-1","lon":139.701,"lat":35.659066,"e_status":0,"e_sort":2800801,"company_cd":18,"line_name":"東京メトロ半蔵門線","line_name_k":"ハンゾウモンセン","line_name_h":"東京メトロ半蔵門線","line_color_c":"A757A8"},
{"line_cd":28008,"station_cd":2800802,"Alphabet":"Z","Number":"02","station_g_cd":2800118,"station_name":"表参道","station_name_k":"おもてさんどう","station_name_r":"OMOTESANNDO","pref_cd":13,"post":"107-0061","add":"港区北青山３丁目","lon":139.712314,"lat":35.665247,"e_status":0,"e_sort":2800802,"company_cd":18,"line_name":"東京メトロ半蔵門線","line_name_k":"ハンゾウモンセン","line_name_h":"東京メトロ半蔵門線","line_color_c":"A757A8"},
{"line_cd":28008,"station_cd":2800803,"Alphabet":"Z","Number":"03","station_g_cd":2800116,"station_name":"青山一丁目","station_name_k":"あおやまいっちょうめ","station_name_r":"AOYAMAICCHOME","pref_cd":13,"post":"107-0062","add":"港区南青山１-１-１９","lon":139.724159,"lat":35.672765,"e_status":0,"e_sort":2800803,"company_cd":18,"line_name":"東京メトロ半蔵門線","line_name_k":"ハンゾウモンセン","line_name_h":"東京メトロ半蔵門線","line_color_c":"A757A8"},
{"line_cd":28008,"station_cd":2800804,"Alphabet":"Z","Number":"04","station_g_cd":2800115,"station_name":"永田町","station_name_k":"ながたちょう","station_name_r":"NAGATACHO","pref_cd":13,"post":" ","add":"東京都千代田区永田町一丁目11-29","lon":139.740258,"lat":35.678757,"e_status":0,"e_sort":2800804,"company_cd":18,"line_name":"東京メトロ半蔵門線","line_name_k":"ハンゾウモンセン","line_name_h":"東京メトロ半蔵門線","line_color_c":"A757A8"},
{"line_cd":28008,"station_cd":2800805,"Alphabet":"Z","Number":"05","station_g_cd":2800805,"station_name":"半蔵門","station_name_k":"はんぞうもん","station_name_r":"HANZOMON","pref_cd":13,"post":"102-0083","add":"千代田区麹町１-６","lon":139.74163,"lat":35.685703,"e_status":0,"e_sort":2800805,"company_cd":18,"line_name":"東京メトロ半蔵門線","line_name_k":"ハンゾウモンセン","line_name_h":"東京メトロ半蔵門線","line_color_c":"A757A8"},
{"line_cd":28008,"station_cd":2800806,"Alphabet":"Z","Number":"06","station_g_cd":2800407,"station_name":"九段下","station_name_k":"くだんした","station_name_r":"KUDANSHITA","pref_cd":13,"post":"102-0074","add":"千代田区九段南１-６-１","lon":139.751948,"lat":35.695589,"e_status":0,"e_sort":2800806,"company_cd":18,"line_name":"東京メトロ半蔵門線","line_name_k":"ハンゾウモンセン","line_name_h":"東京メトロ半蔵門線","line_color_c":"A757A8"},
{"line_cd":28008,"station_cd":2800807,"Alphabet":"Z","Number":"07","station_g_cd":2800807,"station_name":"神保町","station_name_k":"じんぼうちょう","station_name_r":"JINBOCHO","pref_cd":13,"post":"101-0051","add":"千代田区神田神保町２-２","lon":139.757606,"lat":35.695966,"e_status":0,"e_sort":2800807,"company_cd":18,"line_name":"東京メトロ半蔵門線","line_name_k":"ハンゾウモンセン","line_name_h":"東京メトロ半蔵門線","line_color_c":"A757A8"},
{"line_cd":28008,"station_cd":2800808,"Alphabet":"Z","Number":"08","station_g_cd":2800208,"station_name":"大手町","station_name_k":"おおてまち","station_name_r":"OTEMACHI","pref_cd":13,"post":"100-0004","add":"千代田区大手町１丁目","lon":139.764107,"lat":35.68686,"e_status":0,"e_sort":2800808,"company_cd":18,"line_name":"東京メトロ半蔵門線","line_name_k":"ハンゾウモンセン","line_name_h":"東京メトロ半蔵門線","line_color_c":"A757A8"},
{"line_cd":28008,"station_cd":2800809,"Alphabet":"Z","Number":"09","station_g_cd":1131402,"station_name":"三越前","station_name_k":"みつこしまえ","station_name_r":"MITSUKOSHIMAE","pref_cd":13,"post":"103-0022","add":"中央区日本橋室町１-８-１","lon":139.773147,"lat":35.684908,"e_status":0,"e_sort":2800809,"company_cd":18,"line_name":"東京メトロ半蔵門線","line_name_k":"ハンゾウモンセン","line_name_h":"東京メトロ半蔵門線","line_color_c":"A757A8"},
{"line_cd":28008,"station_cd":2800810,"Alphabet":"Z","Number":"10","station_g_cd":2800810,"station_name":"水天宮前","station_name_k":"すいてんぐうまえ","station_name_r":"SUITENGUMAE","pref_cd":13,"post":"103-0014","add":"中央区日本橋蛎殻町２-１-１","lon":139.785377,"lat":35.682683,"e_status":0,"e_sort":2800810,"company_cd":18,"line_name":"東京メトロ半蔵門線","line_name_k":"ハンゾウモンセン","line_name_h":"東京メトロ半蔵門線","line_color_c":"A757A8"},
{"line_cd":28008,"station_cd":2800811,"Alphabet":"Z","Number":"11","station_g_cd":2800811,"station_name":"清澄白河","station_name_k":"きよすみしらかわ","station_name_r":"KIYOSUMISHIRAKAWA","pref_cd":13,"post":"135-0021","add":"江東区白河１-７-１４","lon":139.798851,"lat":35.682105,"e_status":0,"e_sort":2800811,"company_cd":18,"line_name":"東京メトロ半蔵門線","line_name_k":"ハンゾウモンセン","line_name_h":"東京メトロ半蔵門線","line_color_c":"A757A8"},
{"line_cd":28008,"station_cd":2800814,"Alphabet":"Z","Number":"12","station_g_cd":2800814,"station_name":"住吉","station_name_k":"すみよし","station_name_r":"SUMIYOSHI","pref_cd":13,"post":"135-0002","add":"江東区住吉２-２３-１２","lon":139.815681,"lat":35.689073,"e_status":0,"e_sort":2800811,"company_cd":18,"line_name":"東京メトロ半蔵門線","line_name_k":"ハンゾウモンセン","line_name_h":"東京メトロ半蔵門線","line_color_c":"A757A8"},
{"line_cd":28008,"station_cd":2800812,"Alphabet":"Z","Number":"13","station_g_cd":1131322,"station_name":"錦糸町","station_name_k":"きんしちょう","station_name_r":"KINSHICHO","pref_cd":13,"post":"130-0022","add":"墨田区江東橋３丁目","lon":139.814941,"lat":35.697578,"e_status":0,"e_sort":2800812,"company_cd":18,"line_name":"東京メトロ半蔵門線","line_name_k":"ハンゾウモンセン","line_name_h":"東京メトロ半蔵門線","line_color_c":"A757A8"},
{"line_cd":28008,"station_cd":2800813,"Alphabet":"Z","Number":"14","station_g_cd":2100203,"station_name":"押上〈スカイツリー前〉","station_name_k":"おしあげ（すかいつりーまえ）","station_name_r":"OSHIAGE（SUKAITSURI-MAE）","pref_cd":13,"post":"131-0045","add":"墨田区押上一丁目","lon":139.812935,"lat":35.710702,"e_status":0,"e_sort":2800813,"company_cd":18,"line_name":"東京メトロ半蔵門線","line_name_k":"ハンゾウモンセン","line_name_h":"東京メトロ半蔵門線","line_color_c":"A757A8"},
{"line_cd":28009,"station_cd":2800901,"Alphabet":"N","Number":"19","station_g_cd":2800901,"station_name":"赤羽岩淵","station_name_k":"あかはねいわぶち","station_name_r":"AKAHANEIWABUCHI","pref_cd":13,"post":"115-0045","add":"北区赤羽１-５２-８","lon":139.722103,"lat":35.783417,"e_status":0,"e_sort":2800901,"company_cd":18,"line_name":"東京メトロ南北線","line_name_k":"ナンボクセン","line_name_h":"東京メトロ南北線","line_color_c":"00ADA9"},
{"line_cd":28009,"station_cd":2800902,"Alphabet":"N","Number":"18","station_g_cd":2800902,"station_name":"志茂","station_name_k":"しも","station_name_r":"SHIMO","pref_cd":13,"post":"115-0042","add":"北区志茂２-１-１８","lon":139.732599,"lat":35.777948,"e_status":0,"e_sort":2800902,"company_cd":18,"line_name":"東京メトロ南北線","line_name_k":"ナンボクセン","line_name_h":"東京メトロ南北線","line_color_c":"00ADA9"},
{"line_cd":28009,"station_cd":2800903,"Alphabet":"N","Number":"17","station_g_cd":2800903,"station_name":"王子神谷","station_name_k":"おうじかみや","station_name_r":"OJIKAMIYA","pref_cd":13,"post":"114-0002","add":"北区王子５-２-１１","lon":139.735933,"lat":35.765172,"e_status":0,"e_sort":2800903,"company_cd":18,"line_name":"東京メトロ南北線","line_name_k":"ナンボクセン","line_name_h":"東京メトロ南北線","line_color_c":"00ADA9"},
{"line_cd":28009,"station_cd":2800904,"Alphabet":"N","Number":"16","station_g_cd":1133212,"station_name":"王子","station_name_k":"おうじ","station_name_r":"OJI","pref_cd":13,"post":"114-0002","add":"北区王子１丁目","lon":139.737618,"lat":35.753966,"e_status":0,"e_sort":2800904,"company_cd":18,"line_name":"東京メトロ南北線","line_name_k":"ナンボクセン","line_name_h":"東京メトロ南北線","line_color_c":"00ADA9"},
{"line_cd":28009,"station_cd":2800905,"Alphabet":"N","Number":"15","station_g_cd":2800905,"station_name":"西ケ原","station_name_k":"にしがはら","station_name_r":"NISHIGAHARA","pref_cd":13,"post":"114-0024","add":"東京都北区西ヶ原二丁目3-8","lon":139.742322,"lat":35.746008,"e_status":0,"e_sort":2800905,"company_cd":18,"line_name":"東京メトロ南北線","line_name_k":"ナンボクセン","line_name_h":"東京メトロ南北線","line_color_c":"00ADA9"},
{"line_cd":28009,"station_cd":2800906,"Alphabet":"N","Number":"14","station_g_cd":1130215,"station_name":"駒込","station_name_k":"こまごめ","station_name_r":"KOMAGOME","pref_cd":13,"post":" ","add":"東京都豊島区駒込二丁目","lon":139.746442,"lat":35.736959,"e_status":0,"e_sort":2800906,"company_cd":18,"line_name":"東京メトロ南北線","line_name_k":"ナンボクセン","line_name_h":"東京メトロ南北線","line_color_c":"00ADA9"},
{"line_cd":28009,"station_cd":2800907,"Alphabet":"N","Number":"13","station_g_cd":2800907,"station_name":"本駒込","station_name_k":"ほんこまごめ","station_name_r":"HONKOMAGOME","pref_cd":13,"post":"113-0023","add":"文京区向丘２-３７-１","lon":139.753828,"lat":35.724155,"e_status":0,"e_sort":2800907,"company_cd":18,"line_name":"東京メトロ南北線","line_name_k":"ナンボクセン","line_name_h":"東京メトロ南北線","line_color_c":"00ADA9"},
{"line_cd":28009,"station_cd":2800908,"Alphabet":"N","Number":"12","station_g_cd":2800908,"station_name":"東大前","station_name_k":"とうだいまえ","station_name_r":"TODAIMAE","pref_cd":13,"post":"113-0023","add":"文京区向丘１-１９-２","lon":139.758025,"lat":35.717633,"e_status":0,"e_sort":2800908,"company_cd":18,"line_name":"東京メトロ南北線","line_name_k":"ナンボクセン","line_name_h":"東京メトロ南北線","line_color_c":"00ADA9"},
{"line_cd":28009,"station_cd":2800909,"Alphabet":"N","Number":"11","station_g_cd":2800204,"station_name":"後楽園","station_name_k":"こうらくえん","station_name_r":"KORAKUEN","pref_cd":13,"post":"112-0003","add":"文京区春日１-２-３","lon":139.751864,"lat":35.707898,"e_status":0,"e_sort":2800909,"company_cd":18,"line_name":"東京メトロ南北線","line_name_k":"ナンボクセン","line_name_h":"東京メトロ南北線","line_color_c":"00ADA9"},
{"line_cd":28009,"station_cd":2800910,"Alphabet":"N","Number":"10","station_g_cd":1131205,"station_name":"飯田橋","station_name_k":"いいだばし","station_name_r":"IDABASHI","pref_cd":13,"post":" ","add":"東京都新宿区神楽坂一丁目13","lon":139.743669,"lat":35.701934,"e_status":0,"e_sort":2800910,"company_cd":18,"line_name":"東京メトロ南北線","line_name_k":"ナンボクセン","line_name_h":"東京メトロ南北線","line_color_c":"00ADA9"},
{"line_cd":28009,"station_cd":2800911,"Alphabet":"N","Number":"09","station_g_cd":1131206,"station_name":"市ケ谷","station_name_k":"いちがや","station_name_r":"ICHIGAYA","pref_cd":13,"post":" ","add":"東京都千代田区五番町2-1","lon":139.736642,"lat":35.691295,"e_status":0,"e_sort":2800911,"company_cd":18,"line_name":"東京メトロ南北線","line_name_k":"ナンボクセン","line_name_h":"東京メトロ南北線","line_color_c":"00ADA9"},
{"line_cd":28009,"station_cd":2800912,"Alphabet":"N","Number":"08","station_g_cd":1131102,"station_name":"四ツ谷","station_name_k":"よつや","station_name_r":"YOTSUYA","pref_cd":13,"post":"160-0004","add":"新宿区四谷１丁目","lon":139.72955,"lat":35.686032,"e_status":0,"e_sort":2800912,"company_cd":18,"line_name":"東京メトロ南北線","line_name_k":"ナンボクセン","line_name_h":"東京メトロ南北線","line_color_c":"00ADA9"},
{"line_cd":28009,"station_cd":2800913,"Alphabet":"N","Number":"07","station_g_cd":2800115,"station_name":"永田町","station_name_k":"ながたちょう","station_name_r":"NAGATACHO","pref_cd":13,"post":" ","add":"東京都千代田区永田町一丁目11-28","lon":139.740258,"lat":35.678757,"e_status":0,"e_sort":2800913,"company_cd":18,"line_name":"東京メトロ南北線","line_name_k":"ナンボクセン","line_name_h":"東京メトロ南北線","line_color_c":"00ADA9"},
{"line_cd":28009,"station_cd":2800914,"Alphabet":"N","Number":"06","station_g_cd":2800114,"station_name":"溜池山王","station_name_k":"ためいけさんのう","station_name_r":"TAMEIKESANNO","pref_cd":13,"post":"100-0014","add":"千代田区永田町２-１１-１","lon":139.741419,"lat":35.673621,"e_status":0,"e_sort":2800914,"company_cd":18,"line_name":"東京メトロ南北線","line_name_k":"ナンボクセン","line_name_h":"東京メトロ南北線","line_color_c":"00ADA9"},
{"line_cd":28009,"station_cd":2800915,"Alphabet":"N","Number":"05","station_g_cd":2800915,"station_name":"六本木一丁目","station_name_k":"ろっぽんぎいっちょうめ","station_name_r":"ROPPONGIICCHOME","pref_cd":13,"post":"106-0032","add":"港区六本木１-４-１","lon":139.739,"lat":35.665595,"e_status":0,"e_sort":2800915,"company_cd":18,"line_name":"東京メトロ南北線","line_name_k":"ナンボクセン","line_name_h":"東京メトロ南北線","line_color_c":"00ADA9"},
{"line_cd":28009,"station_cd":2800916,"Alphabet":"N","Number":"04","station_g_cd":2800916,"station_name":"麻布十番","station_name_k":"あざぶじゅうばん","station_name_r":"AZABUJUBAN","pref_cd":13,"post":"106-0045","add":"港区麻布十番４-４-９","lon":139.737051,"lat":35.654682,"e_status":0,"e_sort":2800916,"company_cd":18,"line_name":"東京メトロ南北線","line_name_k":"ナンボクセン","line_name_h":"東京メトロ南北線","line_color_c":"00ADA9"},
{"line_cd":28009,"station_cd":2800917,"Alphabet":"N","Number":"03","station_g_cd":2800917,"station_name":"白金高輪","station_name_k":"しろかねたかなわ","station_name_r":"SHIROKANETAKANAWA","pref_cd":13,"post":"108-0074","add":"港区高輪１-３-２０","lon":139.734104,"lat":35.642903,"e_status":0,"e_sort":2800917,"company_cd":18,"line_name":"東京メトロ南北線","line_name_k":"ナンボクセン","line_name_h":"東京メトロ南北線","line_color_c":"00ADA9"},
{"line_cd":28009,"station_cd":2800918,"Alphabet":"N","Number":"02","station_g_cd":2800918,"station_name":"白金台","station_name_k":"しろかねだい","station_name_r":"SHIROKANEDAI","pref_cd":13,"post":"108-0071","add":"港区白金台３-２","lon":139.726133,"lat":35.637917,"e_status":0,"e_sort":2800918,"company_cd":18,"line_name":"東京メトロ南北線","line_name_k":"ナンボクセン","line_name_h":"東京メトロ南北線","line_color_c":"00ADA9"},
{"line_cd":28009,"station_cd":2800919,"Alphabet":"N","Number":"01","station_g_cd":1130203,"station_name":"目黒","station_name_k":"めぐろ","station_name_r":"MEGURO","pref_cd":13,"post":" ","add":"東京都品川区上大崎四丁目2-1","lon":139.7155,"lat":35.633272,"e_status":0,"e_sort":2800919,"company_cd":18,"line_name":"東京メトロ南北線","line_name_k":"ナンボクセン","line_name_h":"東京メトロ南北線","line_color_c":"00ADA9"},
{"line_cd":28010,"station_cd":2801001,"Alphabet":"F","Number":"01","station_g_cd":2100111,"station_name":"和光市","station_name_k":"わこうし","station_name_r":"WAKOSHI","pref_cd":11,"post":" ","add":"埼玉県和光市本町4-6","lon":139.612434,"lat":35.788507,"e_status":0,"e_sort":2801001,"company_cd":18,"line_name":"東京メトロ副都心線","line_name_k":"フクトシンセン","line_name_h":"東京メトロ副都心線","line_color_c":"BB6633"},
{"line_cd":28010,"station_cd":2801002,"Alphabet":"F","Number":"02","station_g_cd":2100110,"station_name":"地下鉄成増","station_name_k":"ちかてつなります","station_name_r":"CHIKATETSUNARIMASU","pref_cd":13,"post":" ","add":"東京都板橋区成増二丁目11-3","lon":139.631497,"lat":35.776557,"e_status":0,"e_sort":2801002,"company_cd":18,"line_name":"東京メトロ副都心線","line_name_k":"フクトシンセン","line_name_h":"東京メトロ副都心線","line_color_c":"BB6633"},
{"line_cd":28010,"station_cd":2801003,"Alphabet":"F","Number":"03","station_g_cd":2100109,"station_name":"地下鉄赤塚","station_name_k":"ちかてつあかさか","station_name_r":"CHIKATETSUAKASAKA","pref_cd":13,"post":" ","add":"東京都練馬区北町八丁目37-16","lon":139.644021,"lat":35.769939,"e_status":0,"e_sort":2801003,"company_cd":18,"line_name":"東京メトロ副都心線","line_name_k":"フクトシンセン","line_name_h":"東京メトロ副都心線","line_color_c":"BB6633"},
{"line_cd":28010,"station_cd":2801004,"Alphabet":"F","Number":"04","station_g_cd":2800604,"station_name":"平和台","station_name_k":"へいわだい","station_name_r":"HEIWADAI","pref_cd":13,"post":" ","add":"東京都練馬区早宮2-17-48","lon":139.653762,"lat":35.757863,"e_status":0,"e_sort":2801004,"company_cd":18,"line_name":"東京メトロ副都心線","line_name_k":"フクトシンセン","line_name_h":"東京メトロ副都心線","line_color_c":"BB6633"},
{"line_cd":28010,"station_cd":2801005,"Alphabet":"F","Number":"05","station_g_cd":2800605,"station_name":"氷川台","station_name_k":"ひかわだい","station_name_r":"HIKAWADAI","pref_cd":13,"post":" ","add":"東京都練馬区氷川台三丁目38-18","lon":139.665567,"lat":35.74955,"e_status":0,"e_sort":2801005,"company_cd":18,"line_name":"東京メトロ副都心線","line_name_k":"フクトシンセン","line_name_h":"東京メトロ副都心線","line_color_c":"BB6633"},
{"line_cd":28010,"station_cd":2801006,"Alphabet":"F","Number":"06","station_g_cd":2200301,"station_name":"小竹向原","station_name_k":"こたけむかいはら","station_name_r":"KOTAKEMUKAIHARA","pref_cd":13,"post":" ","add":"東京都練馬区小竹町二丁目16-15","lon":139.678572,"lat":35.743803,"e_status":0,"e_sort":2801006,"company_cd":18,"line_name":"東京メトロ副都心線","line_name_k":"フクトシンセン","line_name_h":"東京メトロ副都心線","line_color_c":"BB6633"},
{"line_cd":28010,"station_cd":2801007,"Alphabet":"F","Number":"07","station_g_cd":2800607,"station_name":"千川","station_name_k":"せんかわ","station_name_r":"SENKAWA","pref_cd":13,"post":" ","add":"東京都豊島区要町三丁目10-7","lon":139.689271,"lat":35.738229,"e_status":0,"e_sort":2801007,"company_cd":18,"line_name":"東京メトロ副都心線","line_name_k":"フクトシンセン","line_name_h":"東京メトロ副都心線","line_color_c":"BB6633"},
{"line_cd":28010,"station_cd":2801008,"Alphabet":"F","Number":"08","station_g_cd":2800608,"station_name":"要町","station_name_k":"かなめちょう","station_name_r":"KANAMECHO","pref_cd":13,"post":" ","add":"東京都豊島区要町一丁目1-10","lon":139.698715,"lat":35.73323,"e_status":0,"e_sort":2801008,"company_cd":18,"line_name":"東京メトロ副都心線","line_name_k":"フクトシンセン","line_name_h":"東京メトロ副都心線","line_color_c":"BB6633"},
{"line_cd":28010,"station_cd":2801009,"Alphabet":"F","Number":"09","station_g_cd":1130212,"station_name":"池袋","station_name_k":"いけぶくろ","station_name_r":"IKEBUKURO","pref_cd":13,"post":" ","add":"東京都豊島区","lon":139.708291,"lat":35.731464,"e_status":0,"e_sort":2801009,"company_cd":18,"line_name":"東京メトロ副都心線","line_name_k":"フクトシンセン","line_name_h":"東京メトロ副都心線","line_color_c":"BB6633"},
{"line_cd":28010,"station_cd":2801010,"Alphabet":"F","Number":"10","station_g_cd":2801010,"station_name":"雑司が谷","station_name_k":"ぞうしがや","station_name_r":"ZOSHIGAYA","pref_cd":13,"post":"171-0032","add":"豊島区雑司が谷二丁目","lon":139.714795,"lat":35.720233,"e_status":0,"e_sort":2801010,"company_cd":18,"line_name":"東京メトロ副都心線","line_name_k":"フクトシンセン","line_name_h":"東京メトロ副都心線","line_color_c":"BB6633"},
{"line_cd":28010,"station_cd":2801011,"Alphabet":"F","Number":"11","station_g_cd":2801011,"station_name":"西早稲田","station_name_k":"にしわせだ","station_name_r":"NISHIWASEDA","pref_cd":13,"post":"162-0051","add":"新宿区西早稲田二丁目","lon":139.709101,"lat":35.708242,"e_status":0,"e_sort":2801011,"company_cd":18,"line_name":"東京メトロ副都心線","line_name_k":"フクトシンセン","line_name_h":"東京メトロ副都心線","line_color_c":"BB6633"},
{"line_cd":28010,"station_cd":2801012,"Alphabet":"F","Number":"12","station_g_cd":2801012,"station_name":"東新宿","station_name_k":"ひがししんじゅく","station_name_r":"HIGASHISHINJUKU","pref_cd":13,"post":"160-0022","add":"新宿区新宿７-２７-３","lon":139.707593,"lat":35.698915,"e_status":0,"e_sort":2801012,"company_cd":18,"line_name":"東京メトロ副都心線","line_name_k":"フクトシンセン","line_name_h":"東京メトロ副都心線","line_color_c":"BB6633"},
{"line_cd":28010,"station_cd":2801013,"Alphabet":"F","Number":"13","station_g_cd":2800217,"station_name":"新宿三丁目","station_name_k":"しんじゅくさんちょうめ","station_name_r":"SHINJUKUSANCHOME","pref_cd":13,"post":"160-0022","add":"新宿区新宿３-１４-１","lon":139.704828,"lat":35.690853,"e_status":0,"e_sort":2801013,"company_cd":18,"line_name":"東京メトロ副都心線","line_name_k":"フクトシンセン","line_name_h":"東京メトロ副都心線","line_color_c":"BB6633"},
{"line_cd":28010,"station_cd":2801014,"Alphabet":"F","Number":"14","station_g_cd":2801014,"station_name":"北参道","station_name_k":"きたさんどう","station_name_r":"KITASANDO","pref_cd":13,"post":"151-0051","add":"渋谷区千駄ヶ谷４丁目","lon":139.705453,"lat":35.678459,"e_status":0,"e_sort":2801014,"company_cd":18,"line_name":"東京メトロ副都心線","line_name_k":"フクトシンセン","line_name_h":"東京メトロ副都心線","line_color_c":"BB6633"},
{"line_cd":28010,"station_cd":2801015,"Alphabet":"F","Number":"15","station_g_cd":1130206,"station_name":"明治神宮前〈原宿〉","station_name_k":"めいじじんぐうまえ（はらじゅく）","station_name_r":"MEIJIJINGUMAE（HARAJUKU）","pref_cd":13,"post":"150-0001","add":"渋谷区神宮前１丁目","lon":139.705367,"lat":35.668497,"e_status":0,"e_sort":2801015,"company_cd":18,"line_name":"東京メトロ副都心線","line_name_k":"フクトシンセン","line_name_h":"東京メトロ副都心線","line_color_c":"BB6633"},
{"line_cd":28010,"station_cd":2801016,"Alphabet":"F","Number":"16","station_g_cd":1130205,"station_name":"渋谷","station_name_k":"しぶや","station_name_r":"SHIBUYA","pref_cd":13,"post":" ","add":"東京都渋谷区道玄坂二丁目1-1","lon":139.702417,"lat":35.659545,"e_status":0,"e_sort":2801016,"company_cd":18,"line_name":"東京メトロ副都心線","line_name_k":"フクトシンセン","line_name_h":"東京メトロ副都心線","line_color_c":"BB6633"},
{"line_cd":99301,"station_cd":9930101,"Alphabet":"E","Number":"28","station_g_cd":9930101,"station_name":"都庁前","station_name_k":"とちょうまえ","station_name_r":"TOCHOMAE","pref_cd":13,"post":"160-0023","add":"新宿区西新宿２-８-１","lon":139.69257,"lat":35.690551,"e_status":0,"e_sort":9930101,"company_cd":119,"line_name":"都営大江戸線","line_name_k":"トエイオオエドセン","line_name_h":"都営大江戸線","line_color_c":"b6007a"},
{"line_cd":99301,"station_cd":9930102,"Alphabet":"E","Number":"01","station_g_cd":9930102,"station_name":"新宿西口","station_name_k":"しんじゅくにしぐち","station_name_r":"SHINJUKUNISHIGUCHI","pref_cd":13,"post":"160-0023","add":"新宿区西新宿１-３-１７","lon":139.699155,"lat":35.693315,"e_status":0,"e_sort":9930102,"company_cd":119,"line_name":"都営大江戸線","line_name_k":"トエイオオエドセン","line_name_h":"都営大江戸線","line_color_c":"b6007a"},
{"line_cd":99301,"station_cd":9930103,"Alphabet":"E","Number":"02","station_g_cd":2801012,"station_name":"東新宿","station_name_k":"ひがししんじゅく","station_name_r":"HIGASHISHINJUKU","pref_cd":13,"post":"160-0022","add":"新宿区新宿７-２７-３","lon":139.707549,"lat":35.69792,"e_status":0,"e_sort":9930103,"company_cd":119,"line_name":"都営大江戸線","line_name_k":"トエイオオエドセン","line_name_h":"都営大江戸線","line_color_c":"b6007a"},
{"line_cd":99301,"station_cd":9930104,"Alphabet":"E","Number":"03","station_g_cd":9930104,"station_name":"若松河田","station_name_k":"わかまつかわだ","station_name_r":"WAKAMATSUKAWADA","pref_cd":13,"post":"162-0054","add":"新宿区河田町１０-１０","lon":139.718184,"lat":35.699218,"e_status":0,"e_sort":9930104,"company_cd":119,"line_name":"都営大江戸線","line_name_k":"トエイオオエドセン","line_name_h":"都営大江戸線","line_color_c":"b6007a"},
{"line_cd":99301,"station_cd":9930105,"Alphabet":"E","Number":"04","station_g_cd":9930105,"station_name":"牛込柳町","station_name_k":"うしごめやなぎちょう","station_name_r":"USHIGOMEYANAGICHO","pref_cd":13,"post":"162-0053","add":"新宿区原町２-３２","lon":139.725027,"lat":35.699518,"e_status":0,"e_sort":9930105,"company_cd":119,"line_name":"都営大江戸線","line_name_k":"トエイオオエドセン","line_name_h":"都営大江戸線","line_color_c":"b6007a"},
{"line_cd":99301,"station_cd":9930106,"Alphabet":"E","Number":"05","station_g_cd":9930106,"station_name":"牛込神楽坂","station_name_k":"うしごめかぐらざか","station_name_r":"USHIGOMEKAGURAZAKA","pref_cd":13,"post":"162-0833","add":"新宿区箪笥町１５","lon":139.735802,"lat":35.700851,"e_status":0,"e_sort":9930106,"company_cd":119,"line_name":"都営大江戸線","line_name_k":"トエイオオエドセン","line_name_h":"都営大江戸線","line_color_c":"b6007a"},
{"line_cd":99301,"station_cd":9930107,"Alphabet":"E","Number":"06","station_g_cd":1131205,"station_name":"飯田橋","station_name_k":"いいだばし","station_name_r":"IDABASHI","pref_cd":13,"post":" ","add":"東京都文京区後楽一丁目9-5","lon":139.744999,"lat":35.702927,"e_status":0,"e_sort":9930107,"company_cd":119,"line_name":"都営大江戸線","line_name_k":"トエイオオエドセン","line_name_h":"都営大江戸線","line_color_c":"b6007a"},
{"line_cd":99301,"station_cd":9930108,"Alphabet":"E","Number":"07","station_g_cd":9930108,"station_name":"春日","station_name_k":"かすが","station_name_r":"KASUGA","pref_cd":13,"post":"112-0003","add":"文京区春日１-１６-１７","lon":139.75325,"lat":35.709598,"e_status":0,"e_sort":9930108,"company_cd":119,"line_name":"都営大江戸線","line_name_k":"トエイオオエドセン","line_name_h":"都営大江戸線","line_color_c":"b6007a"},
{"line_cd":99301,"station_cd":9930109,"Alphabet":"E","Number":"08","station_g_cd":2800205,"station_name":"本郷三丁目","station_name_k":"ほんごうさんちょうめ","station_name_r":"HONGOSANCHOME","pref_cd":13,"post":"113-0033","add":"文京区本郷２-３９-１","lon":139.760095,"lat":35.707462,"e_status":0,"e_sort":9930109,"company_cd":119,"line_name":"都営大江戸線","line_name_k":"トエイオオエドセン","line_name_h":"都営大江戸線","line_color_c":"b6007a"},
{"line_cd":99301,"station_cd":9930110,"Alphabet":"E","Number":"09","station_g_cd":1130221,"station_name":"上野御徒町","station_name_k":"うえのおかちまち","station_name_r":"UENOOKACHIMACHI","pref_cd":13,"post":"110-0005","add":"台東区上野５-２６-６","lon":139.774332,"lat":35.707893,"e_status":0,"e_sort":9930110,"company_cd":119,"line_name":"都営大江戸線","line_name_k":"トエイオオエドセン","line_name_h":"都営大江戸線","line_color_c":"b6007a"},
{"line_cd":99301,"station_cd":9930111,"Alphabet":"E","Number":"10","station_g_cd":9930111,"station_name":"新御徒町","station_name_k":"しんおかちまち","station_name_r":"SHINOKACHIMACHI","pref_cd":13,"post":"111-0041","add":"台東区元浅草１-５-２","lon":139.781958,"lat":35.707045,"e_status":0,"e_sort":9930111,"company_cd":119,"line_name":"都営大江戸線","line_name_k":"トエイオオエドセン","line_name_h":"都営大江戸線","line_color_c":"b6007a"},
{"line_cd":99301,"station_cd":9930112,"Alphabet":"E","Number":"11","station_g_cd":9930112,"station_name":"蔵前","station_name_k":"くらまえ","station_name_r":"KURAMAE","pref_cd":13,"post":"111-0051","add":"台東区蔵前２-３-１","lon":139.790931,"lat":35.703236,"e_status":0,"e_sort":9930112,"company_cd":119,"line_name":"都営大江戸線","line_name_k":"トエイオオエドセン","line_name_h":"都営大江戸線","line_color_c":"b6007a"},
{"line_cd":99301,"station_cd":9930113,"Alphabet":"E","Number":"12","station_g_cd":1131321,"station_name":"両国","station_name_k":"りょうごく","station_name_r":"RYOGOKU","pref_cd":13,"post":"130-0015","add":"墨田区横網１丁目","lon":139.797421,"lat":35.696881,"e_status":0,"e_sort":9930113,"company_cd":119,"line_name":"都営大江戸線","line_name_k":"トエイオオエドセン","line_name_h":"都営大江戸線","line_color_c":"b6007a"},
{"line_cd":99301,"station_cd":9930114,"Alphabet":"E","Number":"13","station_g_cd":9930114,"station_name":"森下","station_name_k":"もりした","station_name_r":"MORISHITA","pref_cd":13,"post":"135-0004","add":"江東区森下２-１７-１７","lon":139.797042,"lat":35.68796,"e_status":0,"e_sort":9930114,"company_cd":119,"line_name":"都営大江戸線","line_name_k":"トエイオオエドセン","line_name_h":"都営大江戸線","line_color_c":"b6007a"},
{"line_cd":99301,"station_cd":9930115,"Alphabet":"E","Number":"14","station_g_cd":2800811,"station_name":"清澄白河","station_name_k":"きよすみしらかわ","station_name_r":"KIYOSUMISHIRAKAWA","pref_cd":13,"post":"135-0021","add":"江東区白河１-７-１４","lon":139.798851,"lat":35.682105,"e_status":0,"e_sort":9930115,"company_cd":119,"line_name":"都営大江戸線","line_name_k":"トエイオオエドセン","line_name_h":"都営大江戸線","line_color_c":"b6007a"},
{"line_cd":99301,"station_cd":9930116,"Alphabet":"E","Number":"15","station_g_cd":2800412,"station_name":"門前仲町","station_name_k":"もんぜんなかちょう","station_name_r":"MONZENNAKACHO","pref_cd":13,"post":"135-0048","add":"江東区門前仲町１丁目","lon":139.796209,"lat":35.671851,"e_status":0,"e_sort":9930116,"company_cd":119,"line_name":"都営大江戸線","line_name_k":"トエイオオエドセン","line_name_h":"都営大江戸線","line_color_c":"b6007a"},
{"line_cd":99301,"station_cd":9930117,"Alphabet":"E","Number":"16","station_g_cd":2800621,"station_name":"月島","station_name_k":"つきしま","station_name_r":"TSUKISHIMA","pref_cd":13,"post":" ","add":"東京都中央区月島一丁目3-9","lon":139.784233,"lat":35.664871,"e_status":0,"e_sort":9930117,"company_cd":119,"line_name":"都営大江戸線","line_name_k":"トエイオオエドセン","line_name_h":"都営大江戸線","line_color_c":"b6007a"},
{"line_cd":99301,"station_cd":9930118,"Alphabet":"E","Number":"17","station_g_cd":9930118,"station_name":"勝どき","station_name_k":"かちどき","station_name_r":"KACHIDOKI","pref_cd":13,"post":"104-0054","add":"中央区勝どき２-１０-１５","lon":139.776442,"lat":35.658507,"e_status":0,"e_sort":9930118,"company_cd":119,"line_name":"都営大江戸線","line_name_k":"トエイオオエドセン","line_name_h":"都営大江戸線","line_color_c":"b6007a"},
{"line_cd":99301,"station_cd":9930119,"Alphabet":"E","Number":"18","station_g_cd":9930119,"station_name":"築地市場","station_name_k":"つきじしじょう","station_name_r":"TSUKIJISHIJO","pref_cd":13,"post":"104-0045","add":"中央区築地５-１-２","lon":139.766915,"lat":35.664895,"e_status":0,"e_sort":9930119,"company_cd":119,"line_name":"都営大江戸線","line_name_k":"トエイオオエドセン","line_name_h":"都営大江戸線","line_color_c":"b6007a"},
{"line_cd":99301,"station_cd":9930120,"Alphabet":"E","Number":"19","station_g_cd":9930120,"station_name":"汐留","station_name_k":"しおどめ","station_name_r":"SHIODOME","pref_cd":13,"post":"105-0021","add":"港区東新橋１丁目５","lon":139.760642,"lat":35.663703,"e_status":0,"e_sort":9930120,"company_cd":119,"line_name":"都営大江戸線","line_name_k":"トエイオオエドセン","line_name_h":"都営大江戸線","line_color_c":"b6007a"},
{"line_cd":99301,"station_cd":9930121,"Alphabet":"E","Number":"20","station_g_cd":9930121,"station_name":"大門","station_name_k":"だいもん","station_name_r":"DAIMON","pref_cd":13,"post":"105-0013","add":"港区浜松町１-２７-１２","lon":139.75466,"lat":35.656785,"e_status":0,"e_sort":9930121,"company_cd":119,"line_name":"都営大江戸線","line_name_k":"トエイオオエドセン","line_name_h":"都営大江戸線","line_color_c":"b6007a"},
{"line_cd":99301,"station_cd":9930122,"Alphabet":"E","Number":"21","station_g_cd":9930122,"station_name":"赤羽橋","station_name_k":"あかはねばし","station_name_r":"AKAHANEBASHI","pref_cd":13,"post":"106-0044","add":"港区東麻布１-２８-１３","lon":139.743642,"lat":35.655007,"e_status":0,"e_sort":9930122,"company_cd":119,"line_name":"都営大江戸線","line_name_k":"トエイオオエドセン","line_name_h":"都営大江戸線","line_color_c":"b6007a"},
{"line_cd":99301,"station_cd":9930123,"Alphabet":"E","Number":"22","station_g_cd":2800916,"station_name":"麻布十番","station_name_k":"あざぶじゅうばん","station_name_r":"AZABUJUBAN","pref_cd":13,"post":"106-0045","add":"港区麻布十番４-４-９","lon":139.736116,"lat":35.656503,"e_status":0,"e_sort":9930123,"company_cd":119,"line_name":"都営大江戸線","line_name_k":"トエイオオエドセン","line_name_h":"都営大江戸線","line_color_c":"b6007a"},
{"line_cd":99301,"station_cd":9930124,"Alphabet":"E","Number":"23","station_g_cd":2800318,"station_name":"六本木","station_name_k":"ろっぽんぎ","station_name_r":"ROPPONGI","pref_cd":13,"post":"106-0032","add":"港区六本木６-１-２５","lon":139.731567,"lat":35.663921,"e_status":0,"e_sort":9930124,"company_cd":119,"line_name":"都営大江戸線","line_name_k":"トエイオオエドセン","line_name_h":"都営大江戸線","line_color_c":"b6007a"},
{"line_cd":99301,"station_cd":9930125,"Alphabet":"E","Number":"24","station_g_cd":2800116,"station_name":"青山一丁目","station_name_k":"あおやまいっちょうめ","station_name_r":"AOYAMAICCHOME","pref_cd":13,"post":"107-0062","add":"港区南青山１-１-１９","lon":139.72396,"lat":35.672929,"e_status":0,"e_sort":9930125,"company_cd":119,"line_name":"都営大江戸線","line_name_k":"トエイオオエドセン","line_name_h":"都営大江戸線","line_color_c":"b6007a"},
{"line_cd":99301,"station_cd":9930126,"Alphabet":"E","Number":"25","station_g_cd":9930126,"station_name":"国立競技場","station_name_k":"こくりつきょうぎじょう","station_name_r":"KOKURITSUKYOGIJO","pref_cd":13,"post":"160-0013","add":"新宿区霞ケ丘町１０-３","lon":139.714932,"lat":35.679831,"e_status":0,"e_sort":9930126,"company_cd":119,"line_name":"都営大江戸線","line_name_k":"トエイオオエドセン","line_name_h":"都営大江戸線","line_color_c":"b6007a"},
{"line_cd":99301,"station_cd":9930127,"Alphabet":"E","Number":"26","station_g_cd":1130207,"station_name":"代々木","station_name_k":"よよぎ","station_name_r":"YOYOGI","pref_cd":13,"post":" ","add":"東京都渋谷区代々木一丁目35-5","lon":139.701666,"lat":35.683218,"e_status":0,"e_sort":9930127,"company_cd":119,"line_name":"都営大江戸線","line_name_k":"トエイオオエドセン","line_name_h":"都営大江戸線","line_color_c":"b6007a"},
{"line_cd":99301,"station_cd":9930128,"Alphabet":"E","Number":"27","station_g_cd":1130208,"station_name":"新宿","station_name_k":"しんじゅく","station_name_r":"SHINJUKU","pref_cd":13,"post":" ","add":"東京都渋谷区代々木二丁目1-1","lon":139.698812,"lat":35.68869,"e_status":0,"e_sort":9930128,"company_cd":119,"line_name":"都営大江戸線","line_name_k":"トエイオオエドセン","line_name_h":"都営大江戸線","line_color_c":"b6007a"},
{"line_cd":99301,"station_cd":9930129,"Alphabet":"E","Number":"29","station_g_cd":9930129,"station_name":"西新宿五丁目","station_name_k":"にししんじゅくごちょうめ","station_name_r":"NISHISHINJUKUGOCHOME","pref_cd":13,"post":"160-0023","add":"新宿区西新宿５-２５-９","lon":139.684304,"lat":35.689798,"e_status":0,"e_sort":9930129,"company_cd":119,"line_name":"都営大江戸線","line_name_k":"トエイオオエドセン","line_name_h":"都営大江戸線","line_color_c":"b6007a"},
{"line_cd":99301,"station_cd":9930130,"Alphabet":"E","Number":"30","station_g_cd":2800220,"station_name":"中野坂上","station_name_k":"なかのさかうえ","station_name_r":"NAKANOSAKAUE","pref_cd":13,"post":"164-0011","add":"中野区中央２-１-２","lon":139.682279,"lat":35.69709,"e_status":0,"e_sort":9930130,"company_cd":119,"line_name":"都営大江戸線","line_name_k":"トエイオオエドセン","line_name_h":"都営大江戸線","line_color_c":"b6007a"},
{"line_cd":99301,"station_cd":9930131,"Alphabet":"E","Number":"31","station_g_cd":1131213,"station_name":"東中野","station_name_k":"ひがしなかの","station_name_r":"HIGASHINAKANO","pref_cd":13,"post":"164-0003","add":"中野区東中野４丁目","lon":139.682987,"lat":35.706891,"e_status":0,"e_sort":9930131,"company_cd":119,"line_name":"都営大江戸線","line_name_k":"トエイオオエドセン","line_name_h":"都営大江戸線","line_color_c":"b6007a"},
{"line_cd":99301,"station_cd":9930132,"Alphabet":"E","Number":"32","station_g_cd":2200704,"station_name":"中井","station_name_k":"なかい","station_name_r":"NAKAI","pref_cd":13,"post":"161-0032","add":"新宿区中落合１-１９-１","lon":139.686356,"lat":35.714035,"e_status":0,"e_sort":9930132,"company_cd":119,"line_name":"都営大江戸線","line_name_k":"トエイオオエドセン","line_name_h":"都営大江戸線","line_color_c":"b6007a"},
{"line_cd":99301,"station_cd":9930133,"Alphabet":"E","Number":"33","station_g_cd":9930133,"station_name":"落合南長崎","station_name_k":"おちあいみなみながさき","station_name_r":"OCHIAIMINAMINAGASAKI","pref_cd":13,"post":"161-0031","add":"新宿区西落合３-１-１８","lon":139.683303,"lat":35.723608,"e_status":0,"e_sort":9930133,"company_cd":119,"line_name":"都営大江戸線","line_name_k":"トエイオオエドセン","line_name_h":"都営大江戸線","line_color_c":"b6007a"},
{"line_cd":99301,"station_cd":9930134,"Alphabet":"E","Number":"34","station_g_cd":9930134,"station_name":"新江古田","station_name_k":"しんえこだ","station_name_r":"SHINEKODA","pref_cd":13,"post":"165-0023","add":"中野区江原町２-２９-１３","lon":139.670653,"lat":35.732538,"e_status":0,"e_sort":9930134,"company_cd":119,"line_name":"都営大江戸線","line_name_k":"トエイオオエドセン","line_name_h":"都営大江戸線","line_color_c":"b6007a"},
{"line_cd":99301,"station_cd":9930135,"Alphabet":"E","Number":"35","station_g_cd":2200106,"station_name":"練馬","station_name_k":"ねりま","station_name_r":"NERIMA","pref_cd":13,"post":"176-0001","add":"練馬区練馬１-３-５","lon":139.65477,"lat":35.737404,"e_status":0,"e_sort":9930135,"company_cd":119,"line_name":"都営大江戸線","line_name_k":"トエイオオエドセン","line_name_h":"都営大江戸線","line_color_c":"b6007a"},
{"line_cd":99301,"station_cd":9930136,"Alphabet":"E","Number":"36","station_g_cd":2200402,"station_name":"豊島園","station_name_k":"としまえん","station_name_r":"TOSHIMAEN","pref_cd":13,"post":"176-0001","add":"練馬区練馬４-１６-５","lon":139.64911,"lat":35.742067,"e_status":0,"e_sort":9930136,"company_cd":119,"line_name":"都営大江戸線","line_name_k":"トエイオオエドセン","line_name_h":"都営大江戸線","line_color_c":"b6007a"},
{"line_cd":99301,"station_cd":9930137,"Alphabet":"E","Number":"37","station_g_cd":9930137,"station_name":"練馬春日町","station_name_k":"ねりまかすがちょう","station_name_r":"NERIMAKASUGACHO","pref_cd":13,"post":"179-0074","add":"練馬区春日町３-２９-２５","lon":139.640236,"lat":35.751452,"e_status":0,"e_sort":9930137,"company_cd":119,"line_name":"都営大江戸線","line_name_k":"トエイオオエドセン","line_name_h":"都営大江戸線","line_color_c":"b6007a"},
{"line_cd":99301,"station_cd":9930138,"Alphabet":"E","Number":"38","station_g_cd":9930138,"station_name":"光が丘","station_name_k":"ひかりがおか","station_name_r":"HIKARIGAOKA","pref_cd":13,"post":"179-0072","add":"練馬区光が丘２-９-５","lon":139.628603,"lat":35.758526,"e_status":0,"e_sort":9930138,"company_cd":119,"line_name":"都営大江戸線","line_name_k":"トエイオオエドセン","line_name_h":"都営大江戸線","line_color_c":"b6007a"},
{"line_cd":99302,"station_cd":9930201,"Alphabet":"A","Number":"01","station_g_cd":9930201,"station_name":"西馬込","station_name_k":"にしうまごめ","station_name_r":"NISHIUMAGOME","pref_cd":13,"post":"143-0026","add":"大田区西馬込２-１-６","lon":139.705942,"lat":35.586859,"e_status":0,"e_sort":9930201,"company_cd":119,"line_name":"都営浅草線","line_name_k":"トエイアサクサセン","line_name_h":"都営浅草線","line_color_c":"e85298"},
{"line_cd":99302,"station_cd":9930202,"Alphabet":"A","Number":"02","station_g_cd":9930202,"station_name":"馬込","station_name_k":"うまごめ","station_name_r":"UMAGOME","pref_cd":13,"post":"143-0021","add":"大田区北馬込２-３１-９","lon":139.711772,"lat":35.596435,"e_status":0,"e_sort":9930202,"company_cd":119,"line_name":"都営浅草線","line_name_k":"トエイアサクサセン","line_name_h":"都営浅草線","line_color_c":"e85298"},
{"line_cd":99302,"station_cd":9930203,"Alphabet":"A","Number":"03","station_g_cd":2600404,"station_name":"中延","station_name_k":"なかのぶ","station_name_r":"NAKANOBU","pref_cd":13,"post":"142-0053","add":"品川区中延４-５-５","lon":139.713736,"lat":35.605769,"e_status":0,"e_sort":9930203,"company_cd":119,"line_name":"都営浅草線","line_name_k":"トエイアサクサセン","line_name_h":"都営浅草線","line_color_c":"e85298"},
{"line_cd":99302,"station_cd":9930204,"Alphabet":"A","Number":"04","station_g_cd":2600503,"station_name":"戸越","station_name_k":"とごし","station_name_r":"TOGOSHI","pref_cd":13,"post":"142-0041","add":"品川区戸越３-４-１７","lon":139.716495,"lat":35.614633,"e_status":0,"e_sort":9930204,"company_cd":119,"line_name":"都営浅草線","line_name_k":"トエイアサクサセン","line_name_h":"都営浅草線","line_color_c":"e85298"},
{"line_cd":99302,"station_cd":9930205,"Alphabet":"A","Number":"05","station_g_cd":1130202,"station_name":"五反田","station_name_k":"ごたんだ","station_name_r":"GOTANDA","pref_cd":13,"post":" ","add":"東京都品川区東五反田一丁目26-14","lon":139.724175,"lat":35.627102,"e_status":0,"e_sort":9930205,"company_cd":119,"line_name":"都営浅草線","line_name_k":"トエイアサクサセン","line_name_h":"都営浅草線","line_color_c":"e85298"},
{"line_cd":99302,"station_cd":9930206,"Alphabet":"A","Number":"06","station_g_cd":9930206,"station_name":"高輪台","station_name_k":"たかわだい","station_name_r":"TAKAWADAI","pref_cd":13,"post":"108-0071","add":"港区白金台２-２６-７","lon":139.730305,"lat":35.631679,"e_status":0,"e_sort":9930206,"company_cd":119,"line_name":"都営浅草線","line_name_k":"トエイアサクサセン","line_name_h":"都営浅草線","line_color_c":"e85298"},
{"line_cd":99302,"station_cd":9930207,"Alphabet":"A","Number":"07","station_g_cd":2700101,"station_name":"泉岳寺","station_name_k":"せんがくじ","station_name_r":"SENGAKUJI","pref_cd":13,"post":"108-0074","add":"港区高輪２-１６-３４","lon":139.74002,"lat":35.638692,"e_status":0,"e_sort":9930207,"company_cd":119,"line_name":"都営浅草線","line_name_k":"トエイアサクサセン","line_name_h":"都営浅草線","line_color_c":"e85298"},
{"line_cd":99302,"station_cd":9930208,"Alphabet":"A","Number":"08","station_g_cd":9930208,"station_name":"三田","station_name_k":"みた","station_name_r":"MITA","pref_cd":13,"post":"108-0014","add":"港区芝５-３４-１０","lon":139.748775,"lat":35.64818,"e_status":0,"e_sort":9930208,"company_cd":119,"line_name":"都営浅草線","line_name_k":"トエイアサクサセン","line_name_h":"都営浅草線","line_color_c":"e85298"},
{"line_cd":99302,"station_cd":9930209,"Alphabet":"A","Number":"09","station_g_cd":9930121,"station_name":"大門","station_name_k":"だいもん","station_name_r":"DAIMON","pref_cd":13,"post":"105-0013","add":"港区浜松町１-２７-１２","lon":139.75466,"lat":35.656785,"e_status":0,"e_sort":9930209,"company_cd":119,"line_name":"都営浅草線","line_name_k":"トエイアサクサセン","line_name_h":"都営浅草線","line_color_c":"e85298"},
{"line_cd":99302,"station_cd":9930210,"Alphabet":"A","Number":"10","station_g_cd":1130102,"station_name":"新橋","station_name_k":"しんばし","station_name_r":"SHINBASHI","pref_cd":13,"post":" ","add":"東京都港区新橋二丁目21-1","lon":139.759451,"lat":35.665577,"e_status":0,"e_sort":9930210,"company_cd":119,"line_name":"都営浅草線","line_name_k":"トエイアサクサセン","line_name_h":"都営浅草線","line_color_c":"e85298"},
{"line_cd":99302,"station_cd":9930211,"Alphabet":"A","Number":"11","station_g_cd":2800313,"station_name":"東銀座","station_name_k":"ひがしぎんざ","station_name_r":"HIGASHIGINZA","pref_cd":13,"post":"104-0061","add":"中央区銀座４-１２-１５","lon":139.767253,"lat":35.669464,"e_status":0,"e_sort":9930211,"company_cd":119,"line_name":"都営浅草線","line_name_k":"トエイアサクサセン","line_name_h":"都営浅草線","line_color_c":"e85298"},
{"line_cd":99302,"station_cd":9930212,"Alphabet":"A","Number":"12","station_g_cd":2800110,"station_name":"宝町","station_name_k":"たからまち","station_name_r":"TAKARAMACHI","pref_cd":13,"post":"104-0031","add":"中央区京橋２-１３-１１","lon":139.771767,"lat":35.675461,"e_status":0,"e_sort":9930212,"company_cd":119,"line_name":"都営浅草線","line_name_k":"トエイアサクサセン","line_name_h":"都営浅草線","line_color_c":"e85298"},
{"line_cd":99302,"station_cd":9930213,"Alphabet":"A","Number":"13","station_g_cd":2800109,"station_name":"日本橋","station_name_k":"にほんばし","station_name_r":"NIHONBASHI","pref_cd":13,"post":"103-0027","add":"中央区日本橋１丁目","lon":139.775721,"lat":35.681688,"e_status":0,"e_sort":9930213,"company_cd":119,"line_name":"都営浅草線","line_name_k":"トエイアサクサセン","line_name_h":"都営浅草線","line_color_c":"e85298"},
{"line_cd":99302,"station_cd":9930214,"Alphabet":"A","Number":"14","station_g_cd":2800309,"station_name":"人形町","station_name_k":"にんぎょうちょう","station_name_r":"NINGYOCHO","pref_cd":13,"post":"103-0013","add":"中央区日本橋人形町２-６-５","lon":139.782285,"lat":35.686307,"e_status":0,"e_sort":9930214,"company_cd":119,"line_name":"都営浅草線","line_name_k":"トエイアサクサセン","line_name_h":"都営浅草線","line_color_c":"e85298"},
{"line_cd":99302,"station_cd":9930215,"Alphabet":"A","Number":"15","station_g_cd":1131403,"station_name":"東日本橋","station_name_k":"ひがしにほんばし","station_name_r":"HIGASHINIHONBASHI","pref_cd":13,"post":"103-0004","add":"中央区東日本橋３-１１-８","lon":139.784821,"lat":35.692126,"e_status":0,"e_sort":9930215,"company_cd":119,"line_name":"都営浅草線","line_name_k":"トエイアサクサセン","line_name_h":"都営浅草線","line_color_c":"e85298"},
{"line_cd":99302,"station_cd":9930216,"Alphabet":"A","Number":"16","station_g_cd":1131320,"station_name":"浅草橋","station_name_k":"あさくさばし","station_name_r":"ASAKUSABASHI","pref_cd":13,"post":"111-0053","add":"台東区浅草橋１丁目","lon":139.786305,"lat":35.697451,"e_status":0,"e_sort":9930216,"company_cd":119,"line_name":"都営浅草線","line_name_k":"トエイアサクサセン","line_name_h":"都営浅草線","line_color_c":"e85298"},
{"line_cd":99302,"station_cd":9930217,"Alphabet":"A","Number":"17","station_g_cd":9930112,"station_name":"蔵前","station_name_k":"くらまえ","station_name_r":"KURAMAE","pref_cd":13,"post":"111-0051","add":"台東区蔵前２-３-１","lon":139.790931,"lat":35.703236,"e_status":0,"e_sort":9930217,"company_cd":119,"line_name":"都営浅草線","line_name_k":"トエイアサクサセン","line_name_h":"都営浅草線","line_color_c":"e85298"},
{"line_cd":99302,"station_cd":9930218,"Alphabet":"A","Number":"18","station_g_cd":2100201,"station_name":"浅草","station_name_k":"あさくさ","station_name_r":"ASAKUSA","pref_cd":13,"post":" ","add":"東京都台東区","lon":139.79697,"lat":35.709461,"e_status":0,"e_sort":9930218,"company_cd":119,"line_name":"都営浅草線","line_name_k":"トエイアサクサセン","line_name_h":"都営浅草線","line_color_c":"e85298"},
{"line_cd":99302,"station_cd":9930219,"Alphabet":"A","Number":"19","station_g_cd":9930219,"station_name":"本所吾妻橋","station_name_k":"ほんじょあづまばし","station_name_r":"HONJOAZUMABASHI","pref_cd":13,"post":"130-0001","add":"墨田区吾妻橋３-７-１６","lon":139.804624,"lat":35.70858,"e_status":0,"e_sort":9930219,"company_cd":119,"line_name":"都営浅草線","line_name_k":"トエイアサクサセン","line_name_h":"都営浅草線","line_color_c":"e85298"},
{"line_cd":99302,"station_cd":9930220,"Alphabet":"A","Number":"20","station_g_cd":2100203,"station_name":"押上（スカイツリー前）","station_name_k":"おしあげ（すかいつりーまえ）","station_name_r":"OSHIAGE（SKYTREEMAE）","pref_cd":13,"post":"131-0045","add":"墨田区押上一丁目","lon":139.812935,"lat":35.710702,"e_status":0,"e_sort":9930220,"company_cd":119,"line_name":"都営浅草線","line_name_k":"トエイアサクサセン","line_name_h":"都営浅草線","line_color_c":"e85298"},
{"line_cd":99303,"station_cd":9930301,"Alphabet":"I","Number":"01","station_g_cd":1130203,"station_name":"目黒","station_name_k":"めぐろ","station_name_r":"MEGURO","pref_cd":13,"post":" ","add":"東京都品川区上大崎四丁目2-1","lon":139.7155,"lat":35.633272,"e_status":0,"e_sort":9930301,"company_cd":119,"line_name":"都営三田線","line_name_k":"トエイミタセン","line_name_h":"都営三田線","line_color_c":"0079c2"},
{"line_cd":99303,"station_cd":9930302,"Alphabet":"I","Number":"02","station_g_cd":2800918,"station_name":"白金台","station_name_k":"しろかねだい","station_name_r":"SHIROKANEDAI","pref_cd":13,"post":"108-0071","add":"港区白金台３-２","lon":139.726133,"lat":35.637917,"e_status":0,"e_sort":9930302,"company_cd":119,"line_name":"都営三田線","line_name_k":"トエイミタセン","line_name_h":"都営三田線","line_color_c":"0079c2"},
{"line_cd":99303,"station_cd":9930303,"Alphabet":"I","Number":"03","station_g_cd":2800917,"station_name":"白金高輪","station_name_k":"しろかねたかなわ","station_name_r":"SHIROKANETAKANAWA","pref_cd":13,"post":"108-0074","add":"港区高輪１-３-２０","lon":139.734104,"lat":35.642903,"e_status":0,"e_sort":9930303,"company_cd":119,"line_name":"都営三田線","line_name_k":"トエイミタセン","line_name_h":"都営三田線","line_color_c":"0079c2"},
{"line_cd":99303,"station_cd":9930304,"Alphabet":"I","Number":"04","station_g_cd":9930208,"station_name":"三田","station_name_k":"みた","station_name_r":"MITA","pref_cd":13,"post":"108-0014","add":"港区芝５-３４-１０","lon":139.748775,"lat":35.64818,"e_status":0,"e_sort":9930304,"company_cd":119,"line_name":"都営三田線","line_name_k":"トエイミタセン","line_name_h":"都営三田線","line_color_c":"0079c2"},
{"line_cd":99303,"station_cd":9930305,"Alphabet":"I","Number":"05","station_g_cd":9930305,"station_name":"芝公園","station_name_k":"しばこうえん","station_name_r":"SHIBAKOEN","pref_cd":13,"post":"105-0011","add":"港区芝公園４-８-１４","lon":139.749824,"lat":35.654074,"e_status":0,"e_sort":9930305,"company_cd":119,"line_name":"都営三田線","line_name_k":"トエイミタセン","line_name_h":"都営三田線","line_color_c":"0079c2"},
{"line_cd":99303,"station_cd":9930306,"Alphabet":"I","Number":"06","station_g_cd":9930306,"station_name":"御成門","station_name_k":"おなりもん","station_name_r":"ONARIMON","pref_cd":13,"post":"105-0003","add":"港区西新橋３-２４-６","lon":139.751535,"lat":35.661215,"e_status":0,"e_sort":9930306,"company_cd":119,"line_name":"都営三田線","line_name_k":"トエイミタセン","line_name_h":"都営三田線","line_color_c":"0079c2"},
{"line_cd":99303,"station_cd":9930307,"Alphabet":"I","Number":"07","station_g_cd":9930307,"station_name":"内幸町","station_name_k":"うちさいわいちょう","station_name_r":"UCHISAIWAICHO","pref_cd":13,"post":"100-0011","add":"千代田区内幸町２-２-３","lon":139.75561,"lat":35.66975,"e_status":0,"e_sort":9930307,"company_cd":119,"line_name":"都営三田線","line_name_k":"トエイミタセン","line_name_h":"都営三田線","line_color_c":"0079c2"},
{"line_cd":99303,"station_cd":9930308,"Alphabet":"I","Number":"08","station_g_cd":2800315,"station_name":"日比谷","station_name_k":"ひびや","station_name_r":"HIBIYA","pref_cd":13,"post":"100-0006","add":"千代田区有楽町１丁目","lon":139.759998,"lat":35.676036,"e_status":0,"e_sort":9930308,"company_cd":119,"line_name":"都営三田線","line_name_k":"トエイミタセン","line_name_h":"都営三田線","line_color_c":"0079c2"},
{"line_cd":99303,"station_cd":9930309,"Alphabet":"I","Number":"09","station_g_cd":2800208,"station_name":"大手町","station_name_k":"おおてまち","station_name_r":"OTEMACHI","pref_cd":13,"post":"100-0004","add":"千代田区大手町１丁目","lon":139.762959,"lat":35.684856,"e_status":0,"e_sort":9930309,"company_cd":119,"line_name":"都営三田線","line_name_k":"トエイミタセン","line_name_h":"都営三田線","line_color_c":"0079c2"},
{"line_cd":99303,"station_cd":9930310,"Alphabet":"I","Number":"10","station_g_cd":2800807,"station_name":"神保町","station_name_k":"じんぼうちょう","station_name_r":"JINBOCHO","pref_cd":13,"post":"101-0051","add":"千代田区神田神保町２-２","lon":139.75812,"lat":35.695492,"e_status":0,"e_sort":9930310,"company_cd":119,"line_name":"都営三田線","line_name_k":"トエイミタセン","line_name_h":"都営三田線","line_color_c":"0079c2"},
{"line_cd":99303,"station_cd":9930311,"Alphabet":"I","Number":"11","station_g_cd":1131204,"station_name":"水道橋","station_name_k":"すいどうばし","station_name_r":"SUIDOBASHI","pref_cd":13,"post":"101-0061","add":"千代田区三崎町２丁目","lon":139.75516,"lat":35.703398,"e_status":0,"e_sort":9930311,"company_cd":119,"line_name":"都営三田線","line_name_k":"トエイミタセン","line_name_h":"都営三田線","line_color_c":"0079c2"},